stop_id,stop_code,stop_name,tts_stop_name,stop_desc,stop_lat,stop_lon,zone_id,stop_url,location_type,parent_station,stop_timezone,wheelchair_boarding,level_id,platform_code
1000,6178,KATIMAVIK / CASTLEFRANK,,,45.308545,-75.899298,,,0,,,,,
10004,3009,RIDEAU C,,,45.425447,-75.693272,,,0,3009_stn,,,,C
10006,7041,GREENFIELD / GREENFIELD,,,45.417371,-75.678383,,,0,,,,,
10008,7043,GREENFIELD / HAVELOCK,,,45.415171,-75.679981,,,0,,,,,
1001,0806,KATIMAVIK / MCGIBBON,,,45.30675,-75.902101,,,0,,,,,
10014,3025,ST-LAURENT A,,,45.420716,-75.638292,,,0,3025_stn,,,,A
10015,3025,ST-LAURENT B,,,45.420709,-75.636971,,,0,3025_stn,,,,B
10016,3025,ST-LAURENT C,,,45.420515,-75.637431,,,0,3025_stn,,,,C
10017,3025,ST-LAURENT D,,,45.420432,-75.638555,,,0,3025_stn,,,,D
1002,6170,KATIMAVIK / DAVIS,,,45.304551,-75.905385,,,0,,,,,
10021,0495,VANTAGE / AD. 303,,,45.458809,-75.490131,,,0,,,,,
10023,0880,PARKDALE / ARMSTRONG,,,45.402307,-75.730073,,,0,,,,,
10024,0882,PARKDALE / WELLINGTON,,,45.400384,-75.728926,,,0,,,,,
10025,0883,PARKDALE / OXFORD,,,45.402836,-75.730303,,,0,,,,,
10026,0881,PARKDALE / WELLINGTON,,,45.400666,-75.728993,,,0,,,,,
10027,3060,BAYVIEW A,,,45.409358,-75.721442,,,0,3060_stn,,,,A
10028,3060,BAYVIEW B,,,45.408245,-75.723363,,,0,3060_stn,,,,B
10029,NO351,ST-PAUL H.S,,,45.340997,-75.792116,,,,,,0,,
1003,6193,KATIMAVIK / AD. 200,,,45.303852,-75.905967,,,0,,,,,
10032,RB439,FLANNERY / BROOKFIELD H.S.,,,45.373411,-75.684979,,,,,,0,,
10033,RH766,FINDLAY CREEK / KELLY FARM,,,45.317266,-75.599916,,,,,,0,,
10034,0299,STRANDHERD / HIGHPOINTE PATH,,,45.275899,-75.729727,,,0,,,,,
10035,0298,STRANDHERD / APPLEDALE PATH,,,45.276094,-75.730148,,,0,,,,,
10037,5224,ST-PAUL H.S,,,45.340889,-75.792417,,,0,,,,,
10038,WM050,MARCH ROAD / TERRY FOX,,,45.347941,-75.923805,,,,,,0,,
1004,6385,TERRY FOX / PALLADIUM,,,45.30071,-75.906165,,,0,,,,,
10042,3022,LEES A,,,45.416008,-75.670368,,,0,3022_stn,,,,A
10043,3022,LEES B,,,45.415885,-75.670266,,,0,3022_stn,,,,B
10047,0644,WALLER / LAURIER E,,,45.424434,-75.687027,,,0,,,,,
10048,8972,KING EDWARD / STEWART,,,45.427209,-75.684429,,,0,,,,,
1005,6383,TERRY FOX / MAPLE GROVE,,,45.298762,-75.903733,,,0,,,,,
10053,3074,CHAPEL HILL B,,,45.432722,-75.523733,,,0,3074_stn,,,,B
10054,3074,CHAPEL HILL A,,,45.433183,-75.523016,,,0,3074_stn,,,,A
10055,8077,MERIVALE / THAMES,,,45.385239,-75.732388,,,0,,,,,
10056,WG488,GRANDVIEW / HASTINGS,,,45.361365,-75.865692,,,,,,0,,
10057,7626,MAIN / HAWTHORNE,,,45.413133,-75.68033,,,0,,,,,
1006,6382,TERRY FOX / EDGEWATER,,,45.296545,-75.900888,,,0,,,,,
1007,2308,HAZELDEAN / TERRY FOX,,,45.293803,-75.89496,,,0,,,,,
10070,0639,WALLER / NICHOLAS,,,45.424534,-75.687169,,,0,,,,,
10071,7486,NICHOLAS / BESSERER,,,45.425302,-75.689982,,,0,,,,,
1008,5410,HAZELDEAN / YOUNG,,,45.295337,-75.89256,,,0,,,,,
1009,5409,HAZELDEAN / CASTLEFRANK,,,45.297237,-75.889635,,,0,,,,,
10090,2499,CAMPEAU / HERLIHEY,,,45.310878,-75.917268,,,0,,,,,
10091,5450,TERRY FOX / CENTRUM,,,45.308738,-75.915849,,,0,,,,,
10093,8527,OGILVIE / CYRVILLE,,,45.42487,-75.634921,,,0,,,,,
10094,6699,OGILVIE / CUMMINGS,,,45.426074,-75.632148,,,0,,,,,
10098,7044,RING  / TOH GENERAL CAMPUS,,,45.399811,-75.648337,,,0,,,,,
1010,0827,HAZELDEAN / CASTLEFRANK,,,45.299057,-75.886767,,,0,,,,,
10104,8001,SUSSEX / MURRAY,,,45.428998,-75.69629,,,0,,,,,
1011,6161,436 HAZELDEAN,,,45.300828,-75.883913,,,0,,,,,
10112,7829,INNES / WILDFLOWER,,,45.456614,-75.501216,,,0,,,,,
10117,3527,ROCKLAND / BUCKLAND,,,45.355834,-75.352794,,,0,,,,,
10118,3529,ROCKDALE / ALCIDE,,,45.353815,-75.351726,,,0,,,,,
10119,3526,ROCKDALE / ALCIDE,,,45.353414,-75.351598,,,0,,,,,
1012,6166,HAZELDEAN / CARBROOKE,,,45.302212,-75.880733,,,0,,,,,
10120,3528,ROCKDALE / FARWEL,,,45.351377,-75.350392,,,0,,,,,
10121,3568,ROCKDALE / RUSSLAND,,,45.340635,-75.344538,,,0,,,,,
10122,3530,ROCKDALE / HIGHWAY 417,,,45.340599,-75.344695,,,0,,,,,
10123,3532,VARS PARK AND RIDE,,,45.332509,-75.345309,,,0,,,,,
10129,0675,FAMILLE-LAPORTE /  HONFLEUR,,,45.500188,-75.468613,,,0,,,,,
1013,6298,HAZELDEAN / CARBROOK,,,45.30291,-75.879097,,,0,,,,,
10130,0596,BOOTH / ZAIDA EDDY,,,45.419799,-75.717526,,,0,,,,,
10131,0597,BOOTH / CHAUDIÈRE,,,45.420366,-75.71772,,,0,,,,,
10139,0968,BOUNDARY / AD. 4567,,,45.367693,-75.455297,,,0,,,,,
1014,0808,EAGLESON / HAZELDEAN,,,45.303427,-75.876585,,,0,,,,,
10140,0969,BOUNDARY / AD. 4550,,,45.367636,-75.455345,,,0,,,,,
10144,3027,BLAIR H,,,45.431608,-75.608266,,,0,3027_stn,,,,H
10145,6611,UNIVERSITY / STADIUM,,,45.387136,-75.695492,,,0,,,,,
10146,4880,RAVEN / UNIVERSITY,,,45.384071,-75.693941,,,0,,,,,
10147,4881,RAVEN / UNIVERSITY,,,45.384204,-75.693338,,,0,,,,,
10148,6785,SUNNYSIDE / ROSEDALE,,,45.392505,-75.687726,,,0,,,,,
10149,3027,BLAIR D,,,45.431831,-75.607735,,,0,3027_stn,,,,D
1015,2460,HAZELDEAN MALL / WEST STOP,,,45.301282,-75.877205,,,0,,,,,
10155,0407,EAGLESON AD. 630,,,45.289391,-75.868876,,,0,,,,,
10156,5824,OBLATS / MAIN,,,45.409847,-75.678323,,,0,,,,,
10157,5825,HAZEL / DESCHATELETS,,,45.408885,-75.676467,,,0,,,,,
10159,3014,LINCOLN FIELDS 3A,,,45.366789,-75.78252,,,0,3014_stn,,,,3A
1016,5395,ROBERTSON / GREENBELT,,,45.306288,-75.87103,,,0,,,,,
10160,3014,LINCOLN FIELDS 4B,,,45.366992,-75.782812,,,0,3014_stn,,,,4B
10161,3014,LINCOLN FIELDS 3B,,,45.366538,-75.782581,,,0,3014_stn,,,,3B
10162,3014,LINCOLN FIELDS 4A,,,45.366655,-75.782821,,,0,3014_stn,,,,4A
10163,1010,ORCHARDVIEW LIVING CENTRE,,,45.235198,-75.610633,,,0,,,,,
10164,6984,8TH LINE / RUSSELL,,,45.229886,-75.469654,,,0,,,,,
10165,6985,8TH LINE / RUSSELL,,,45.22992,-75.469584,,,0,,,,,
10166,7637,ACCEPTANCE / HOPE SIDE,,,45.276007,-75.84084,,,0,,,,,
1017,5387,2775 ROBERTSON,,,45.30868,-75.865182,,,0,,,,,
10173,7335,SCOTT / HOLLAND,,,45.403911,-75.733829,,,0,,,,,
1018,5382,ROBERTSON / HAANEL,,,45.311065,-75.859427,,,0,,,,,
10186,8970,KING EDWARD / LAURIER E,,,45.425193,-75.68273,,,0,,,,,
1019,5385,2405 ROBERTSON,,,45.315483,-75.848755,,,0,,,,,
102,3031,SMYTH 1A (B),,,45.401402,-75.66669,,,0,3031_stn,,,,1A
1020,0913,ROBERTSON / MILL HILL,,,45.317685,-75.843508,,,0,,,,,
1021,2959,ROBERTSON / WESTCLIFFE,,,45.318623,-75.841458,,,0,,,,,
10213,1072,MANOTICK STATION / HERBERTS CORNERS,,,45.205457,-75.594108,,,0,,,,,
10214,1073,MANOTICK STATION / HERBERTS CORNERS,,,45.205758,-75.594578,,,0,,,,,
10215,6994,MANOTICK STATION / ELKWOOD,,,45.235653,-75.611762,,,0,,,,,
10216,6995,MANOTICK STATION / ELKWOOD,,,45.235206,-75.611558,,,0,,,,,
10217,6998,PARKWAY / GOOD,,,45.260502,-75.565782,,,0,,,,,
10218,6999,PARKWAY / GOOD,,,45.260617,-75.565866,,,0,,,,,
10219,9000,PARKWAY / MEADOW,,,45.262724,-75.560501,,,0,,,,,
10220,9001,PARKWAY / MEADOW,,,45.263041,-75.560019,,,0,,,,,
10221,9007,GREELY COMMUNITY CENTRE,,,45.261258,-75.557278,,,0,,,,,
10222,9002,BANK / MASON,,,45.276657,-75.567935,,,0,,,,,
10223,9003,BANK / MASON,,,45.276538,-75.568231,,,0,,,,,
10224,1918,OSGOODE / LOGAN FARM,,,45.148075,-75.602155,,,0,,,,,
10225,1900,OSGOODE / LOGAN FARM,,,45.148164,-75.602228,,,0,,,,,
10227,5948,DOCTOR LEACH / AD. 5581,,,45.22178,-75.685564,,,0,,,,,
10228,0769,STRANDHERD / LIEBE,,,45.260706,-75.762702,,,0,,,,,
10229,NO240,LOUIS RIEL H.S,,,45.441034,-75.571779,,,,,,0,,
10230,0098,LOUIS RIEL H.S,,,45.440801,-75.572171,,,0,,,,,
10231,0365,FERNBANK / EDENWYLDE,,,45.254586,-75.901189,,,0,,,,,
10232,0366,FERNBANK / EDENWYLDE,,,45.254876,-75.900554,,,0,,,,,
10234,7182,169 LEES AVE,,,45.415253,-75.672104,,,0,,,,,
10236,EG572,JASMINE / OGILVIE,,,45.442733,-75.595947,,,,,,0,,
10246,8010,INGLEWOOD / MACFARLANE,,,45.391467,-75.722195,,,0,,,,,
1025,5290,ROBERTSON / VANIER,,,45.323677,-75.829125,,,0,,,,,
10251,0489,KELLY FARM / WHITE ALDER,,,45.319199,-75.608472,,,0,,,,,
10252,0402,KELLY FARM / BARRETT FARM,,,45.323484,-75.611264,,,0,,,,,
10253,0403,KELLY FARM / BARRETT FARM,,,45.32355,-75.61137,,,0,,,,,
10254,0426,KELLY FARM / TROLLIUS,,,45.320552,-75.609474,,,0,,,,,
10255,0427,KELLY FARM / TROLLIUS,,,45.320603,-75.609555,,,0,,,,,
10256,0436,KELLY FARM / SORA,,,45.312566,-75.597486,,,0,,,,,
10257,0435,KELLY FARM / MABERLY,,,45.312814,-75.597785,,,0,,,,,
10258,0454,KELLY FARM / MIIKANA,,,45.310789,-75.596028,,,0,,,,,
10259,0455,KELLY FARM / MIIKANA,,,45.311009,-75.596315,,,0,,,,,
1026,0933,1966 ROBERTSON,,,45.32525,-75.825215,,,0,,,,,
10260,0490,KELLY FARM / ZAATIIK,,,45.308736,-75.594426,,,0,,,,,
10261,0491,KELLY FARM / DUN SKIPPER,,,45.308209,-75.593923,,,0,,,,,
10262,0496,DUN SKIPPER / CEDAR CREEK,,,45.309486,-75.589913,,,0,,,,,
10263,0497,DUN SKIPPER / CEDAR CREEK,,,45.309465,-75.589783,,,0,,,,,
10264,4710,CITIGATE / CROSSKEYS,,,45.270011,-75.787476,,,0,,,,,
10265,4711,CITIGATE / CROSSKEYS,,,45.269475,-75.787056,,,0,,,,,
10266,4712,CITIGATE / SYSTEMHOUSE,,,45.266886,-75.785628,,,0,,,,,
10267,4713,CITIGATE / SYSTEMHOUSE,,,45.267188,-75.785705,,,0,,,,,
10268,4714,SYSTEMHOUSE / PATHWAY,,,45.268164,-75.781901,,,0,,,,,
10269,4715,SYSTEMHOUSE / TRINITY CROSSING,,,45.268169,-75.782157,,,0,,,,,
1027,5292,ROBERTSON / STINSON,,,45.32661,-75.82206,,,0,,,,,
10270,8583,BELFAST / AD. 830,,,45.412712,-75.637249,,,0,,,,,
10271,8584,BELFAST / AD. 869,,,45.412979,-75.637657,,,0,,,,,
10272,8008,FERN CASEY / AXIS,,,45.43892,-75.507915,,,0,,,,,
10273,8009,FERN CASEY / COULOIR,,,45.439561,-75.508036,,,0,,,,,
1028,5294,ROBERTSON / LYNHAR,,,45.327873,-75.81896,,,0,,,,,
10283,NO145,HOLY TRINITY,,,45.307931,-75.900299,,,,,,0,,
10284,NO237,PIERRE-DE-BLOIS,,,45.262121,-75.757081,,,,,,0,,
10285,NO238,PIERRE-DE-BLOIS,,,45.262932,-75.758349,,,,,,0,,
10286,8494,DISCOVERY / NETWORK ACCESS,,,45.351075,-75.847574,,,0,,,,,
10287,0452,KATIMAVIK / MCGIBBON,,,45.307734,-75.900601,,,0,,,,,
10288,7920,TERRY FOX / HAZELDEAN,,,45.292889,-75.894784,,,0,,,,,
1029,6493,ROBERTSON / NORTHSIDE,,,45.328835,-75.817092,,,0,,,,,
10290,0824,PIERRE-DE-BLOIS,,,45.262817,-75.758175,,,0,,,,,
10291,0825,PIERRE-DE-BLOIS,,,45.262217,-75.757186,,,0,,,,,
10292,5520,COPE / PASEANA,,,45.274677,-75.874788,,,0,,,,,
10293,5521,COPE / PASEANA,,,45.275039,-75.874168,,,0,,,,,
10295,5523,COPE / ROUNCEY,,,45.272722,-75.879519,,,0,,,,,
10297,5525,COPE / DEFENCE,,,45.27087,-75.885509,,,0,,,,,
103,3032,RIVERSIDE 1A (B),,,45.39673,-75.669454,,,0,3032_stn,,,,1A
1030,5295,ROBERTSON / BASELINE,,,45.332467,-75.8142,,,0,,,,,
10300,5527,ROBERT GRANT / COPE,,,45.268042,-75.889828,,,0,,,,,
10302,5529,ROBERT GRANT / FERNBANK,,,45.264807,-75.885804,,,0,,,,,
10304,7183,LEES / SPRINGHURST PARK,,,45.41487,-75.672689,,,0,,,,,
10305,7921,TERRY FOX / HAZELDEAN,,,45.292934,-75.895257,,,0,,,,,
10306,6005,MERIVALE H.S (STUDENTS ONLY),,,45.344243,-75.727486,,,0,,,,,
1031,2310,BASELINE / ROBERTSON,,,45.333842,-75.812125,,,0,,,,,
10313,3080,LANSDOWNE TD PLACE,,,45.398124,-75.685505,,,0,3080_stn,,,,
10314,NO441,BELL H.S,,,45.326713,-75.809574,,,,,,0,,
10316,5302,BELL H.S  NORTH / NORD,,,45.326836,-75.80922,,,0,,,,,
1032,0941,BASELINE / VALLEY STREAM,,,45.333135,-75.805935,,,0,,,,,
10330,5953,LESTER / MEANDERING,,,45.340907,-75.626165,,,0,,,,,
10331,5954,LESTER / MEANDERING,,,45.340713,-75.626011,,,0,,,,,
1034,1698,BASELINE / SANDCASTLE,,,45.335693,-75.799895,,,0,,,,,
10344,3012,WESTBORO B,,,45.395769,-75.752975,,,0,3012_stn,,,,B
10345,0516,BORBRIDGE / SOUTHBRIDGE,,,45.263375,-75.697084,,,0,,,,,
10346,0517,BORBRIDGE / STARGAZER,,,45.263487,-75.69533,,,0,,,,,
10347,0518,BORBRIDGE / BRIAN GOOD,,,45.263956,-75.693508,,,0,,,,,
1035,5250,BASELINE / MONTEREY,,,45.33729,-75.797717,,,0,,,,,
10350,5607,ROUNCEY / COPE,,,45.273242,-75.879341,,,0,,,,,
10353,7101,WANAKI / MIKINAK,,,45.451661,-75.625035,,,0,,,,,
10354,7102,WANAKI / PROVENDER,,,45.449215,-75.62506,,,0,,,,,
10356,4998,CODD'S / MIKINAK,,,45.450566,-75.633694,,,0,,,,,
10357,5761,JEROME JORDIN / DÉCOEUR,,,45.44284,-75.491356,,,0,,,,,
10358,5763,JEROME JORDIN / WILLOW ASTER,,,45.440887,-75.49054,,,0,,,,,
10359,5762,JEROME JORDIN / BARTONIA,,,45.440682,-75.490464,,,0,,,,,
1036,0311,BASELINE / GUTHRIE,,,45.33884,-75.792678,,,0,,,,,
10363,6826,FINDLAY CREEK / BUFFLEHEAD,,,45.314816,-75.607296,,,0,,,,,
10364,4636,CAMBIE / CARNELIAN,,,45.271139,-75.683303,,,0,,,,,
10365,4637,CAMBIE / DREAMCATCHER,,,45.271111,-75.683304,,,0,,,,,
10368,8268,6130 HAZELDEAN,,,45.271111,-75.932632,,,0,,,,,
10369,8263,6085 HAZELDEAN,,,45.270983,-75.933348,,,0,,,,,
1037,SJ215,BASELINE / GREENBANK,,,45.34113,-75.787178,,,,,,0,,
10377,3012,WESTBORO OFF ONLY,,,45.395739,-75.753067,,,0,3012_stn,,,,
10379,8771,ST. FRANCIS XAVIER H.S,,,45.290039,-75.669202,,,0,,,,,
1038,2905,BASELINE / MCWATTERS,,,45.342385,-75.784167,,,0,,,,,
10381,5802,ST JOSEPH H.S,,,45.26255,-75.741602,,,0,,,,,
10382,0382,MONTRÉAL / VANIER,,,45.43458,-75.66526,,,0,,,,,
10383,0631,MONTRÉAL / OLMSTEAD,,,45.43587,-75.66201,,,0,,,,,
10384,0901,MONTRÉAL / MARIER,,,45.43609,-75.661719,,,0,,,,,
10385,0807,MONTRÉAL / LAFONTAINE,,,45.438351,-75.655024,,,0,,,,,
10386,0926,MONTRÉAL / DE L'ÉGLISE,,,45.439373,-75.652308,,,0,,,,,
1039,4569,BASELINE / ROCKWAY,,,45.343895,-75.780487,,,0,,,,,
10391,0445,PALLADIUM / DERREEN,,,45.290027,-75.933046,,,0,,,,,
10392,0446,PALLADIUM / DERREEN,,,45.289525,-75.931935,,,0,,,,,
10394,8769,ST. FRANCIS XAVIER H.S,,,45.290994,-75.668282,,,0,,,,,
10395,0905,PALLADIUM / CAMPEAU,,,45.296904,-75.941498,,,0,,,,,
10396,0906,PALLADIUM / CAMPEAU,,,45.296082,-75.941066,,,0,,,,,
10397,1559,HUNTSVILLE / ESCARPMENT,,,45.318531,-75.943612,,,0,,,,,
10398,6507,ROUNCEY / CLINTONIA,,,45.280727,-75.886311,,,0,,,,,
10399,6508,ROUNCEY / TAPADERO,,,45.279204,-75.884494,,,0,,,,,
104,3033,PLEASANT PARK 1A (B),,,45.392675,-75.669518,,,0,3033_stn,,,,1A
1040,2907,BASELINE / AD. 2323,,,45.345612,-75.77645,,,0,,,,,
10400,6509,ROUNCEY / TAPADERO,,,45.279565,-75.884755,,,0,,,,,
10402,0200,PERSEUS / NOKOMIS,,,45.252254,-75.755421,,,0,,,,,
10403,0201,PERSEUS / NOKOMIS,,,45.252294,-75.755089,,,0,,,,,
10404,0202,APOLUNE / FLAGSTAFF,,,45.249796,-75.754576,,,0,,,,,
10405,0203,APOLUNE / FLAGSTAFF,,,45.249834,-75.75484,,,0,,,,,
1041,4571,BASELINE / CENTREPOINTE,,,45.346557,-75.77413,,,0,,,,,
1042,4572,BASELINE / HIGHGATE,,,45.348092,-75.770393,,,0,,,,,
1043,2909,BASELINE / CENTREPOINTE,,,45.34887,-75.76855,,,0,,,,,
10431,NO450,GLOUCESTER H.S,,,45.440257,-75.597727,,,,,,0,,
10436,8655,ABBOTT / TALLTREE,,,45.270568,-75.901489,,,0,,,,,
1044,0717,CONSTELLATION / GEMINI,,,45.349435,-75.765633,,,0,,,,,
10442,NO234,CEDARVIEW MIDDLE SCHOOL,,,45.277094,-75.779573,,,,,,0,,
10443,3068,LIMEBANK A,,,45.27722,-75.668003,,,0,3068_stn,,,,A
10444,3068,LIMEBANK I,,,45.277321,-75.666391,,,0,3068_stn,,,,I
10445,0532,CEDARVIEW MIDDLE SCHOOL,,,45.276989,-75.779481,,,0,,,,,
10447,0538,CEDARVIEW MIDDLE SCHOOL,,,45.276845,-75.77934,,,0,,,,,
10449,,LAVAL / LAURIER,,,45.425425,-75.716484,,,0,,,,,
10452,6780,SUNNYSIDE / GROSVENOR,,,45.392996,-75.686121,,,0,,,,,
10453,6781,SUNNYSIDE / LEONARD,,,45.392036,-75.688525,,,0,,,,,
10456,DT022,ELGIN / PARK,,,45.413396,-75.686454,,,,,,0,,
10457,7045,RING,,,45.399564,-75.651254,,,0,,,,,
10459,5822,HERON / JEFFERSON,,,45.380181,-75.643653,,,0,,,,,
1046,0707,NIGIG / ALGONQUIN COLLEGE,,,45.34825,-75.75655,,,0,,,,,
10475,6835,SUSSEX / BOTELER,,,45.434143,-75.699292,,,0,,,,,
10476,7905,SUSSEX / BRUYÈRE,,,45.430764,-75.697974,,,0,,,,,
10477,6839,MURRAY / PARENT,,,45.429398,-75.694279,,,0,,,,,
10478,6846,MURRAY / DALHOUSIE,,,45.430184,-75.692383,,,0,,,,,
10479,0757,MANN / KING EDWARD,,,45.419551,-75.67583,,,0,,,,,
1048,4511,BASELINE / NAVAHO,,,45.35448,-75.75562,,,0,,,,,
10480,0758,MANN / KING EDWARD,,,45.419193,-75.676966,,,0,,,,,
10481,2218,SOMERSET W / PRESTON,,,45.408517,-75.713887,,,0,,,,,
10482,2219,SOMERSET W / PRESTON,,,45.40845,-75.713846,,,0,,,,,
10483,8189,LA VERENDRYE / OGILVIE,,,45.45298,-75.597452,,,0,,,,,
10484,2540,LA VÉRENDRYE / GATINEAU VIEW,,,45.452484,-75.601219,,,0,,,,,
10485,2541,LA VÉRENDRYE / GATINEAU VIEW,,,45.453183,-75.603864,,,0,,,,,
10486,8188,LA VÉRENDRYE / OAKDEAN,,,45.456846,-75.606007,,,0,,,,,
10487,2547,LA VÉRENDRYE / OAKDEAN,,,45.460204,-75.607451,,,0,,,,,
10488,2549,QUINCY / RIVERSHORE,,,45.46142,-75.606053,,,0,,,,,
10489,8187,EASTVALE / FILLMORE,,,45.460951,-75.601678,,,0,,,,,
1049,2963,BASELINE / DEER FIELD,,,45.356158,-75.751687,,,0,,,,,
10490,2551,EASTVALE / FILLMORE,,,45.460997,-75.596956,,,0,,,,,
10491,4991,EASTVALE / KENDER,,,45.45757,-75.595119,,,0,,,,,
10492,2557,EASTVALE / GRAFTON,,,45.455281,-75.594559,,,0,,,,,
10493,2558,EASTVALE / HUBBARD,,,45.45401,-75.59388,,,0,,,,,
10494,8948,LOYOLA / EASTVALE,,,45.45205,-75.593071,,,0,,,,,
10495,8185,LOYOLA / DE SALABERRY,,,45.452565,-75.590663,,,0,,,,,
10496,8457,LOYOLA / DE SALABERRY,,,45.452466,-75.590789,,,0,,,,,
10497,1088,SHEFFORD / CANOTEK,,,45.452623,-75.589469,,,0,,,,,
10498,8935,BEARBROOK / NORTHPARK,,,45.435089,-75.566344,,,0,,,,,
10499,8938,BEARBROOK / AD 100,,,45.432571,-75.56506,,,0,,,,,
1050,4510,BASELINE / CORDOVA,,,45.357017,-75.749755,,,0,,,,,
10501,8792,EASTPARK / RIDGEBURN,,,45.435655,-75.559943,,,0,,,,,
10502,8793,EASTPARK / WEDGEWOOD,,,45.435605,-75.559437,,,0,,,,,
10503,2610,INNES / RONDEL,,,45.436,-75.553789,,,0,,,,,
10504,5779,PRESTWICK / DES ÉPINETTES,,,45.46525,-75.495275,,,0,,,,,
10505,5942,DÉCOEUR / SCULPIN,,,45.441942,-75.494893,,,0,,,,,
10506,5930,DÉCOEUR / JEROME JORDIN,,,45.443256,-75.491148,,,0,,,,,
10507,0686,DÉCOEUR / MOUNTAIN SORREL,,,45.445744,-75.487747,,,0,,,,,
10508,0687,DÉCOEUR / AUBÉPINES,,,45.44638,-75.485624,,,0,,,,,
10509,5935,SWEETVALLEY / HENSLOW'S,,,45.441859,-75.479759,,,0,,,,,
1051,2965,BASELINE / BASSANO,,,45.3582,-75.746965,,,0,,,,,
10510,0279,LANTHIER / INNES,,,45.459213,-75.492936,,,0,,,,,
10511,5937,SWEETVALLEY / TENTH LINE,,,45.440263,-75.476172,,,0,,,,,
10512,5760,JEROME JODOIN / BRIAN COBURN,,,45.446601,-75.493314,,,0,,,,,
10513,5765,JEROME JODOIN / DÉCOEUR,,,45.44386,-75.492118,,,0,,,,,
10514,0934,MER BLEUE / BRIAN COBURN,,,45.446609,-75.499325,,,0,,,,,
10515,8643,FERN CASEY / AXIS,,,45.439395,-75.508197,,,0,,,,,
10516,8341,COMPASS / ENCLAVE,,,45.434219,-75.509267,,,0,,,,,
10517,8342,COMPASS / ENCLAVE,,,45.433643,-75.509031,,,0,,,,,
10518,8343,COMPASS / YELLOW BIRCH,,,45.43634,-75.510554,,,0,,,,,
10519,8344,COMPASS / SHINLEAF,,,45.436711,-75.510881,,,0,,,,,
1052,4507,BASELINE / PENDER,,,45.359113,-75.744748,,,0,,,,,
10520,0180,FRANK BENDER  / INNES,,,45.45188,-75.510905,,,0,,,,,
10521,0181,FRANK BENDER  / INNES,,,45.452378,-75.510987,,,0,,,,,
10522,2742,BOTTRIELL / HOSKINS,,,45.475918,-75.491067,,,0,,,,,
10523,2741,BOTTRIELL / HOSKINS,,,45.475633,-75.491103,,,0,,,,,
10524,2743,BOTTRIELL / MERKLEY,,,45.472015,-75.490449,,,0,,,,,
10525,8032,BAYSWATER / SOMERSET W,,,45.40682,-75.720831,,,0,,,,,
10526,4836,KIRKWOOD / CHATELAIN,,,45.377773,-75.734888,,,0,,,,,
10527,7430,KIRKWOOD / WOODWARD,,,45.37954,-75.736897,,,0,,,,,
10528,7556,LAPERRIERE / CLYDE,,,45.375576,-75.747819,,,0,,,,,
10529,0357,CLYDE / LAPERRIERE,,,45.375384,-75.747912,,,0,,,,,
1053,2967,BASELINE / ST HELEN'S,,,45.360115,-75.74253,,,0,,,,,
10533,0001,DE NIVERVILLE / MCGILL,,,45.334272,-75.668119,,,0,,,,,
10534,7993,LEITRIM / ALBION,,,45.320577,-75.623282,,,0,,,,,
10535,3041,LEITRIM A,,,45.314573,-75.631641,,,0,3041_stn,,,,A
10536,3041,LEITRIM B,,,45.314563,-75.630691,,,0,3041_stn,,,,B
10539,0942,SOUTHGATE / AD. 3295,,,45.358876,-75.652586,,,0,,,,,
1054,4485,BASELINE / CLYDE,,,45.361617,-75.739033,,,0,,,,,
10540,4241,CAHILL / SOUTHGATE,,,45.356457,-75.649698,,,0,,,,,
10541,2956,DAZE / MALL ENTRANCE,,,45.353594,-75.652655,,,0,,,,,
10542,2957,DAZE / MALL ENTRANCE,,,45.353841,-75.652461,,,0,,,,,
10543,8883,ALBION / ALADDIN,,,45.339589,-75.634808,,,0,,,,,
10544,8884,ALBION / MAASS,,,45.34236,-75.636401,,,0,,,,,
10545,0593,QUEENSDALE / SIXTH,,,45.34926,-75.621537,,,0,,,,,
10546,3990,FINDLAY CREEK / TRIDENT,,,45.321731,-75.589963,,,0,,,,,
10547,3991,FINDLAY CREEK / WOOLER,,,45.322769,-75.587385,,,0,,,,,
10548,3993,ROTARY CHAMOMILE,,,45.326566,-75.587741,,,0,,,,,
10549,3994,ROTARY / NETTLE,,,45.328344,-75.589177,,,0,,,,,
10550,3995,ROTARY / FERNSIDE,,,45.329641,-75.592253,,,0,,,,,
10551,3996,ROTARY / FAIRWEATHER,,,45.32858,-75.594938,,,0,,,,,
10552,3211,CONROY / LORRY GREENBERG,,,45.36901,-75.622057,,,0,,,,,
10553,3212,CONROY / LORRY GREENBERG,,,45.370077,-75.622335,,,0,,,,,
10554,3213,CONROY / CONROY PARK,,,45.367129,-75.62099,,,0,,,,,
10555,3214,CONROY / CONROY PARK,,,45.367152,-75.620681,,,0,,,,,
10556,3215,CONROY / HUNT CLUB,,,45.364536,-75.619478,,,0,,,,,
10557,3216,CONROY / HUNT CLUB,,,45.365732,-75.619844,,,0,,,,,
10558,0507,BORBRIDGE / BRIAN GOOD,,,45.26399,-75.693204,,,0,,,,,
10559,0508,BORBRIDGE / CANVASBACK,,,45.265561,-75.689037,,,0,,,,,
1056,4046,1305 BASELINE,,,45.363985,-75.733567,,,0,,,,,
10560,0509,BORBRIDGE / HAWKESWOOD,,,45.265386,-75.689541,,,0,,,,,
10561,2405,RIVER / SUMMERHILL,,,45.265119,-75.701055,,,0,,,,,
10562,2406,RIVER / SUMMERHILL,,,45.265805,-75.701085,,,0,,,,,
10563,4639,SPRATT / EARL ARMSTRONG,,,45.272571,-75.689584,,,0,,,,,
10564,4642,SPRATT / POPLIN,,,45.271256,-75.689117,,,0,,,,,
10565,4645,SPRATT / CAMBIE,,,45.269081,-75.687771,,,0,,,,,
10566,4643,SPRATT / CAMBIE,,,45.268956,-75.68781,,,0,,,,,
10567,9819,EARL ARMSTRONG / SPRATT,,,45.272342,-75.688959,,,0,,,,,
10568,9820,EARL ARMSTRONG / SHORELINE,,,45.274504,-75.684275,,,0,,,,,
1057,4483,BASELINE / MERIVALE,,,45.365503,-75.730038,,,0,,,,,
10571,3068,LIMEBANK C,,,45.277486,-75.66703,,,0,3068_stn,,,,C
10573,4820,CLYDE / AD.1370,,,45.360123,-75.739079,,,0,,,,,
10574,6867,FISHER / APPLEBY,,,45.353266,-75.705831,,,0,,,,,
10575,6868,FISHER / VIEWMOUNT,,,45.354573,-75.706938,,,0,,,,,
10576,6064,AMBERWOOD / PRINCE OF WALES,,,45.322898,-75.701306,,,0,,,,,
10577,0938,AMBERWOOD / EDENBROOK,,,45.321544,-75.705384,,,0,,,,,
10578,5816,HUNT CLUB / ANTARES,,,45.335477,-75.704871,,,0,,,,,
10579,5817,WEST HUNT CLUB / LASER,,,45.336255,-75.705237,,,0,,,,,
1058,2420,BASELINE / FARLANE,,,45.367062,-75.726573,,,0,,,,,
10580,0007,WEST HUNT CLUB / AD. 545,,,45.333551,-75.72713,,,0,,,,,
10581,0008,WEST HUNT CLUB / CLEOPATRA,,,45.33291,-75.72851,,,0,,,,,
10582,0009,WEST HUNT CLUB / MERIVALE,,,45.334479,-75.724993,,,0,,,,,
10583,0010,WEST HUNT CLUB / AD. 526,,,45.33396,-75.725704,,,0,,,,,
10584,0012,WEST HUNT CLUB / MERIVALE,,,45.335077,-75.723029,,,0,,,,,
10585,0513,STRANDHERD / WOODROFFE,,,45.275475,-75.71921,,,0,,,,,
10586,2886,STRANDHERD / AD. 3201,,,45.275121,-75.721789,,,0,,,,,
10587,9192,PRINCE OF WALES / BARNSDALE,,,45.24133,-75.7123,,,0,,,,,
10588,9193,PRINCE OF WALES / BARNSDALE,,,45.240489,-75.712135,,,0,,,,,
10589,7240,GREENBANK / AD. 1581,,,45.272155,-75.747487,,,0,,,,,
1059,4481,BASELINE / ZENA,,,45.368572,-75.723115,,,0,,,,,
10590,7241,GREENBANK / AD 1581,,,45.273103,-75.747805,,,0,,,,,
10591,0847,GOLFLINKS / BLACKSHIRE,,,45.258106,-75.721231,,,0,,,,,
10592,0849,GOLFLINKS / CALABAR,,,45.253963,-75.718796,,,0,,,,,
10593,0749,GOLFLINKS / RUSTWOOD,,,45.256897,-75.717524,,,0,,,,,
10594,0342,CAPPAMORE / CLOYNE,,,45.236951,-75.729128,,,0,,,,,
10595,0343,CAPPAMORE / CLOYNE,,,45.236632,-75.729811,,,0,,,,,
10596,5568,RIVERSTONE / PONDHOLLOW,,,45.262955,-75.723559,,,0,,,,,
10597,5569,RIVERSTONE / FENCEROW,,,45.260317,-75.728294,,,0,,,,,
10598,7923,PONDHOLLOW / SILVERTHORN,,,45.260262,-75.722743,,,0,,,,,
10599,5590,PINECREST / FALLIS,,,45.356238,-75.793666,,,0,,,,,
1060,0319,BASELINE / MARSON,,,45.370073,-75.719627,,,0,,,,,
10600,5591,PINECREST / AD. 917,,,45.355912,-75.793347,,,0,,,,,
10601,5592,PINECREST / ST. STEPHEN'S,,,45.354175,-75.792511,,,0,,,,,
10602,5593,PINECREST / KELLY,,,45.3537,-75.792106,,,0,,,,,
10603,5595,PINECREST / QUEENSVIEW,,,45.35165,-75.790894,,,0,,,,,
10604,9830,CAMPEAU / HERLIHEY,,,45.310875,-75.917122,,,0,,,,,
10605,0043,MARITIME / GREAT LAKES,,,45.313943,-75.901038,,,0,,,,,
10606,0044,MARITIME / GREAT LAKES,,,45.313688,-75.901795,,,0,,,,,
10607,0045,MARITIME / CAMPEAU,,,45.316702,-75.90021,,,0,,,,,
10608,0046,MARITIME / CANADIAN SHIELD,,,45.315599,-75.899316,,,0,,,,,
10609,5439,TERRY FOX / ROLAND MICHENER,,,45.30905,-75.916048,,,0,,,,,
1061,6028,BASELINE / FISHER,,,45.371773,-75.715797,,,0,,,,,
10610,5442,TERRY FOX / AD. 499,,,45.309706,-75.921383,,,0,,,,,
10611,5443,TERRY FOX / KANATA,,,45.311406,-75.931948,,,0,,,,,
10612,5444,KANATA / TERRY FOX,,,45.312237,-75.931915,,,0,,,,,
10613,5446,KANATA / STIKINE,,,45.319941,-75.927768,,,0,,,,,
10614,5879,PENFIELD / BANTING,,,45.325661,-75.892869,,,0,,,,,
10615,5878,PENFIELD / BANTING,,,45.328008,-75.891774,,,0,,,,,
10616,5876,PENFIELD / RUTHERFORD,,,45.331548,-75.895788,,,0,,,,,
10617,5330,VARLEY / CARR,,,45.331415,-75.911379,,,0,,,,,
10618,5334,VARLEY / ALFRED CASSON,,,45.33332,-75.908515,,,0,,,,,
10619,5336,VARLEY / JACKSON,,,45.332225,-75.90626,,,0,,,,,
1062,6027,BASELINE / LEXINGTON,,,45.372783,-75.713348,,,0,,,,,
10620,5337,VARLEY / MILNE,,,45.330196,-75.904818,,,0,,,,,
10621,5342,VARLEY / BEAVERBROOK,,,45.327454,-75.905096,,,0,,,,,
10622,5870,LEACOCK / TIFFANY,,,45.324568,-75.904098,,,0,,,,,
10623,5872,LEACOCK / LEACOCK WAY,,,45.323388,-75.901599,,,0,,,,,
10624,5873,LEACOCK / CASGRAIN,,,45.324859,-75.897667,,,0,,,,,
10625,5874,LEACOCK / KINGSFORD,,,45.327054,-75.898456,,,0,,,,,
10626,9150,KAKULU / PICKFORD,,,45.309826,-75.88214,,,0,,,,,
10627,9151,KAKULU / BARROW,,,45.310142,-75.885525,,,0,,,,,
10628,9152,KAKULU / PICKFORD,,,45.310115,-75.885172,,,0,,,,,
10629,5419,CASTLEFRANK / TERRY FOX,,,45.28532,-75.885051,,,0,,,,,
1063,6770,BASELINE / PRINCE OF WALES,,,45.374993,-75.707865,,,0,,,,,
10630,5420,CASTLEFRANK /GLAMORGAN,,,45.285399,-75.882663,,,0,,,,,
10631,5710,TERRY FOX / CASTLEFRANK,,,45.285303,-75.885962,,,0,,,,,
10632,5422,CASTLEFRANK / SHELDRAKE,,,45.290999,-75.879705,,,0,,,,,
10633,0931,EAGLESON / FERNBANK,,,45.277822,-75.862388,,,0,,,,,
10634,0649,EAGLESON / FERNBANK,,,45.278946,-75.862912,,,0,,,,,
10635,6647,STEEPLE CHASE / STONEHAVEN,,,45.291353,-75.858815,,,0,,,,,
10636,6634,STEEPLE CHASE / BUDAPEST,,,45.293019,-75.857947,,,0,,,,,
10637,6636,STEEPLE CHASE / BLACK TERN,,,45.296187,-75.854572,,,0,,,,,
10638,6632,STEEPLE CHASE / BLACK TERN,,,45.294567,-75.856464,,,0,,,,,
10639,0429,CROWNRIDGE / MEADOWBREEZE,,,45.27492,-75.84624,,,0,,,,,
1064,6753,HERON / HERON BRIDGE,,,45.37531,-75.703183,,,0,,,,,
10640,6486,CROWNRIDGE / SHEPPARD'S GLEN,,,45.276878,-75.847792,,,0,,,,,
10641,9831,CAMPEAU / DIDSBURY,,,45.306397,-75.921902,,,0,,,,,
10642,9832,CAMPEAU / DIDSBURY,,,45.306581,-75.920946,,,0,,,,,
10643,9833,CAMPEAU / WINTERSET,,,45.304353,-75.92923,,,0,,,,,
10644,9834,CAMPEAU / WINTERSET,,,45.305051,-75.927567,,,0,,,,,
10645,9835,CAMPEAU / COUNTRY GLEN,,,45.302453,-75.933458,,,0,,,,,
10646,9836,CAMPEAU / COUNTRY GLEN,,,45.302897,-75.931588,,,0,,,,,
10647,9837,CAMPEAU / HUNTMAR,,,45.300797,-75.936774,,,0,,,,,
1065,8271,HERON / RIVERSIDE,,,45.37659,-75.693115,,,0,,,,,
10650,0970,HUNTMAR /CAMPEAU,,,45.301711,-75.936406,,,0,,,,,
10651,9840,PAINE /BRETTONWOOD,,,45.304881,-75.93798,,,0,,,,,
10652,9841,PAINE / CLONRUSH,,,45.306301,-75.936045,,,0,,,,,
10653,9842,WINTERSET / PARABOLICA,,,45.307194,-75.933645,,,0,,,,,
10655,9845,WINTERSET / CALVINGTON,,,45.306024,-75.931821,,,0,,,,,
10656,0494,HALTON / WHERNSIDE,,,45.351731,-75.943366,,,0,,,,,
10657,0780,HALTON / MCBRIEN,,,45.355343,-75.938956,,,0,,,,,
10658,0450,HALTON / DUNOLLIE,,,45.35541,-75.940082,,,0,,,,,
10659,9052,MARCONI / BURWASH LANDING,,,45.359792,-75.928506,,,0,,,,,
1066,5280,MOODIE / HADLEY,,,45.320879,-75.832751,,,0,,,,,
10660,9054,MARCONI / MAXWELL BRIDGE,,,45.361216,-75.930648,,,0,,,,,
10661,9056,MAXWELL BRIDGE / WINDANCE,,,45.359341,-75.934452,,,0,,,,,
10662,6572,KLONDIKE / MARCONI,,,45.358392,-75.927394,,,0,,,,,
10663,1473,KLONDIKE / MARCONI,,,45.358527,-75.927049,,,0,,,,,
10664,1050,KLONDIKE / ROY ERRINGTON,,,45.347834,-75.943918,,,0,,,,,
10665,7551,BRADY / STATEWOOD,,,45.344183,-75.940278,,,0,,,,,
10666,2077,WEYBRIDGE / RADCLIFFE,,,45.271629,-75.769897,,,0,,,,,
10667,0911,HÉLÈNE-CAMPBELL / COBBLE HILL,,,45.273022,-75.782759,,,0,,,,,
10668,0912,HÉLÈNE-CAMPBELL / COBBLE HILL,,,45.273026,-75.78247,,,0,,,,,
10669,0829,MCBEAN / MARTIN,,,45.191894,-75.83579,,,0,,,,,
1067,0919,MOODIE / TYRELL,,,45.317298,-75.830623,,,0,,,,,
10671,9056,HAZELDEAN / CARP,,,45.266746,-75.940372,,,0,,,,,
10672,2189,STITTSVILLE MAIN / NEIL,,,45.270951,-75.929704,,,0,,,,,
10673,3830,ABBOTT / TRIANGLE,,,45.280833,-75.892407,,,0,,,,,
10674,3831,ABBOTT / TRIANGLE,,,45.280696,-75.892715,,,0,,,,,
10675,3840,ABBOTT / ROUNCEY,,,45.282672,-75.88944,,,0,,,,,
10676,0100,KIMPTON / LLOYDALEX,,,45.270634,-75.940515,,,0,,,,,
10677,0101,KIMPTON / LLOYDALEX,,,45.270755,-75.940279,,,0,,,,,
10678,0102,KIMPTON / SAMANTHA EASTOP,,,45.271946,-75.939152,,,0,,,,,
10679,0103,KIMPTON / SAMANTHA EASTOP,,,45.27195,-75.939097,,,0,,,,,
1068,0920,OLD RICHMOND / MOODIE,,,45.315348,-75.828695,,,0,,,,,
10680,0104,KIMPTON / EAGLEHEAD,,,45.274148,-75.936735,,,0,,,,,
10681,0105,KIMPTON / GERANIUM,,,45.27422,-75.936632,,,0,,,,,
10682,0106,KIMPTON / STITTSVILLE MAIN,,,45.276073,-75.932587,,,0,,,,,
10683,0107,KIMPTON / STITTSVILLE MAIN,,,45.276015,-75.93253,,,0,,,,,
10684,4032,COPE / TERRY FOX,,,45.276861,-75.872707,,,0,,,,,
10685,0154,FERNBANK / TERRY FOX,,,45.273863,-75.869982,,,0,,,,,
10686,0155,FERNBANK / TERRY FOX,,,45.274197,-75.86923,,,0,,,,,
10687,9820,TERRY FOX / ABBOTT,,,45.284509,-75.885152,,,0,,,,,
10688,9822,TERRY FOX / WESTPHALIAN,,,45.280011,-75.879535,,,0,,,,,
10689,6315,ROUNCEY / COPE,,,45.272603,-75.878834,,,0,,,,,
1069,5273,OLD RICHMOND / ARNOLD,,,45.316,-75.827758,,,0,,,,,
10690,6316,ROUNCEY / RUBICON,,,45.271282,-75.878049,,,0,,,,,
10691,6317,ROUNCEY / ATLAS,,,45.270726,-75.877452,,,0,,,,,
10697,3068,LIMEBANK F,,,45.277257,-75.666734,,,0,3068_stn,,,,F
10698,3068,LIMEBANK G,,,45.277042,-75.667223,,,0,3068_stn,,,,G
10699,3068,LIMEBANK H,,,45.276832,-75.667812,,,0,3068_stn,,,,H
107,3036,WALKLEY B,,,45.368715,-75.667143,,,0,3036_stn,,,,B
1070,5276,OLD RICHMOND / AD. 3924,,,45.316993,-75.827432,,,0,,,,,
10700,5441,TERRY FOX / AD. 499,,,45.309989,-75.919727,,,0,,,,,
10701,9843,PAINE / WINTERSET,,,45.307582,-75.934401,,,0,,,,,
10704,3067,BOWESVILLE B,,,45.293672,-75.632492,,,0,3067_stn,,,,B
10705,0029,FAMILLE-LAPORTE / GÉOGRAPHE,,,45.500159,-75.468386,,,0,,,,,
10708,0756,MANN / KING EDWARD,,,45.41978,-75.675269,,,0,,,,,
1071,0921,OLD RICHMOND / LONGWOOD,,,45.319083,-75.826725,,,0,,,,,
10712,,DU PORTAGE / DE L' HÔTEL-DE-VILLE,,,45.427228,-75.714224,,,0,,,,,
10714,3069,UPLANDS A,,,45.332776,-75.655522,,,0,3069_stn,,,,A
10718,4626,MOTHER TERESA H.S,,,45.284572,-75.740032,,,0,,,,,
1072,5278,OLD RICHMOND / KIMBERLEY,,,45.322262,-75.82589,,,0,,,,,
10728,3024,TREMBLAY A,,,45.418353,-75.651676,,,0,3024_stn,,,,A
10729,3024,TREMBLAY B,,,45.418425,-75.652254,,,0,3024_stn,,,,B
1073,5279,OLD RICHMOND / ROBERTSON,,,45.323955,-75.826272,,,0,,,,,
10730,5793,SANDFORD FLEMING / INDUSTRIAL,,,45.412633,-75.655936,,,0,,,,,
10731,3053,ELMVALE A,,,45.399259,-75.623359,,,0,3053_stn,,,,A
10732,3053,ELMVALE B,,,45.399765,-75.623598,,,0,3053_stn,,,,B
10734,3009,RIDEAU D,,,45.427365,-75.689949,,,0,3009_stn,,,,D
10735,3021,UOTTAWA A,,,45.42163,-75.679911,,,0,3021_stn,,,,A
10736,3021,UOTTAWA B,,,45.421989,-75.680031,,,0,3021_stn,,,,B
10737,3062,CARLETON A,,,45.384998,-75.696465,,,0,3062_stn,,,,A
10738,3062,CARLETON B,,,45.385485,-75.694867,,,0,3062_stn,,,,B
10739,3065,CORSO ITALIA C,,,45.405381,-75.712515,,,0,3065_stn,,,,C
1074,1587,HERON / RIVERSIDE,,,45.377075,-75.689967,,,0,,,,,
10740,3065,CORSO ITALIA D,,,45.404469,-75.711718,,,0,3065_stn,,,,D
10741,3061,DOW'S LAKE C,,,45.398454,-75.708297,,,0,3061_stn,,,,C
10742,3061,DOW'S LAKE,,,45.398165,-75.70794,,,0,3061_stn,,,,D
10743,3026,CYRVILLE C,,,45.423631,-75.630656,,,0,3026_stn,,,,C
10744,3026,CYRVILLE D,,,45.423778,-75.630146,,,0,3026_stn,,,,D
10745,3065,CORSO ITALIA A,,,45.403891,-75.714385,,,0,3065_stn,,,,A
10746,3065,CORSO ITALIA B,,,45.403889,-75.713924,,,0,3065_stn,,,,B
10747,3061,DOW'S LAKE A,,,45.396858,-75.709627,,,0,3061_stn,,,,A
10748,3061,DOW'S LAKE B,,,45.396635,-75.70947,,,0,3061_stn,,,,B
10749,3063,MOONEY'S BAY A,,,45.377194,-75.685492,,,0,3063_stn,,,,A
1075,8277,HERON / RIVERSIDE,,,45.376845,-75.693242,,,0,,,,,
10750,3063,MOONEY'S BAY B,,,45.377396,-75.685391,,,0,3063_stn,,,,B
10751,3063,MOONEY'S BAY C,,,45.377639,-75.685045,,,0,3063_stn,,,,C
10752,3063,MOONEY'S BAY D,,,45.377668,-75.682039,,,0,3063_stn,,,,D
10754,2998,STONEWAY / WINDHURST,,,45.281672,-75.719273,,,0,,,,,
10755,9885,PRINCE OF WALES / ROCKY HILL,,,45.266709,-75.708152,,,0,,,,,
10756,9886,PRINCE OF WALES / ROCKY HILL,,,45.266672,-75.707736,,,0,,,,,
10757,3058,TERRY FOX 4C,,,45.310028,-75.905981,,,0,3058_stn,,,,4C
1076,2342,HERON / HERON BRIDGE,,,45.375683,-75.703343,,,0,,,,,
10765,2106,IKEA PATHWAY / AD. 2656 IRIS,,,45.349272,-75.783781,,,0,,,,,
10766,,LAURIER / EDDY,,,45.424774,-75.719442,,,0,,,,,
1077,6762,BASELINE / PRINCE OF WALES,,,45.37531,-75.707142,,,0,,,,,
10771,7566,CATHERINE / METCALFE,,,45.411812,-75.686619,,,0,,,,,
10773,0308,ST. MATTHEW H.S.,,,45.480327,-75.531887,,,0,,,,,
10775,0384,TRIM / JEANNE D'ARC,,,45.497764,-75.480479,,,0,,,,,
10779,0894,LACOLLE / AD. 520,,,45.490555,-75.482029,,,0,,,,,
1078,6026,BASELINE / LEXINGTON,,,45.372998,-75.713412,,,0,,,,,
10780,0895,LACOLLE / AD.570,,,45.489267,-75.485401,,,0,,,,,
10781,5820,HERON / WALKLEY,,,45.380607,-75.639823,,,0,,,,,
10782,7287,WALKLEY / HERON,,,45.380513,-75.63806,,,0,,,,,
10788,7680,MAIN  / CENTENNIAL,,,45.401299,-75.673748,,,0,,,,,
10789,7681,MAIN / CENTENNIAL,,,45.401492,-75.673368,,,0,,,,,
1079,6764,BASELINE / FISHER,,,45.371257,-75.717442,,,0,,,,,
10790,7068,WANAKI / HEMLOCK,,,45.452858,-75.625687,,,0,,,,,
10791,0655,HEMLOCK / CODD'S,,,45.453083,-75.633594,,,0,,,,,
10792,0659,HEMLOCK / MOSES TENNISCO,,,45.453035,-75.629486,,,0,,,,,
10796,0974,COLONNADE / COLONNADE,,,45.342132,-75.720827,,,0,,,,,
10798,9040,COLONNADE / COLONNADE,,,45.346332,-75.70365,,,0,,,,,
10799,0070,COLONNADE / AD. 189,,,45.342059,-75.710945,,,0,,,,,
1080,4480,BASELINE / MARSON,,,45.36985,-75.720565,,,0,,,,,
10800,0071,COLONNADE / AD. 182,,,45.341806,-75.713957,,,0,,,,,
10801,0072,COLONNADE / AD. 203,,,45.341752,-75.713915,,,0,,,,,
10802,0073,COLONNADE / AD. 190,,,45.341563,-75.716291,,,0,,,,,
10803,0074,COLONNADE / AD. 217,,,45.341487,-75.716412,,,0,,,,,
10804,0869,COLONNADE / PRINCE OF WALES,,,45.346002,-75.70269,,,0,,,,,
10805,6896,ISABELLA / ELGIN,,,45.411343,-75.684949,,,0,,,,,
10806,0632,EAGLESON / COPE,,,45.281954,-75.864745,,,0,,,,,
10807,5998,MICHAEL COWPLAND / TERRENCE MATHEWS,,,45.286953,-75.869785,,,0,,,,,
1081,6766,BASELINE / ZENA,,,45.368468,-75.723798,,,0,,,,,
10814,5434,KANATA / KEYROCK,,,45.320022,-75.927996,,,0,,,,,
1082,4482,BASELINE / FARLANE,,,45.366967,-75.727248,,,0,,,,,
1083,4491,BASELINE / MERIVALE,,,45.365115,-75.731483,,,0,,,,,
1084,4001,1305 BASELINE,,,45.364057,-75.733948,,,0,,,,,
1086,4003,BASELINE / CLYDE,,,45.36122,-75.740528,,,0,,,,,
1087,4505,BASELINE / ST HELEN'S,,,45.360218,-75.742848,,,0,,,,,
1088,4506,BASELINE / PENDER,,,45.359242,-75.745122,,,0,,,,,
1089,4005,BASELINE / BASSANO,,,45.358335,-75.747212,,,0,,,,,
109,3038,SOUTH KEYS E,,,45.353153,-75.654968,,,0,3038_stn,,,,E
1090,4508,BASELINE / CORDOVA,,,45.357333,-75.749445,,,0,,,,,
1091,4509,BASELINE / FERGUSON,,,45.356293,-75.751908,,,0,,,,,
1092,2954,NAVAHO / BASELINE,,,45.353917,-75.755827,,,0,,,,,
1093,0704,WAJASHK / ALGONQUIN COLLEGE RESIDENCE,,,45.350538,-75.756868,,,0,,,,,
1094,0706,NIGIG / ALGONQUIN COLLEGE,,,45.34833,-75.756708,,,0,,,,,
1095,0718,CONSTELLATION / GEMINI,,,45.348925,-75.765077,,,0,,,,,
1096,4573,BASELINE / HIGHGATE,,,45.348695,-75.769862,,,0,,,,,
1097,2918,BASELINE / COBDEN,,,45.34682,-75.774303,,,0,,,,,
1098,2920,BASELINE / AD. 2347,,,45.345397,-75.777602,,,0,,,,,
1099,4568,BASELINE / SOUTHWOOD,,,45.344317,-75.780202,,,0,,,,,
1100,2922,BASELINE / MCWATTERS,,,45.34252,-75.784572,,,0,,,,,
1101,2903,BASELINE / GREENBANK,,,45.340557,-75.789285,,,0,,,,,
1102,1145,BASELINE / GUTHRIE,,,45.339072,-75.792917,,,0,,,,,
1103,5249,BASELINE / MONTEREY,,,45.337442,-75.798003,,,0,,,,,
1104,4049,BASELINE / SANDCASTLE,,,45.335478,-75.800998,,,0,,,,,
1106,0946,BASELINE / Q.C.H.,,,45.333023,-75.806903,,,0,,,,,
1107,1391,BASELINE / CEDARVIEW,,,45.333293,-75.809788,,,0,,,,,
1108,5296,ROBERTSON / BASELINE,,,45.334025,-75.813555,,,0,,,,,
111,8641,HUNT CLUB / PARKWAY,,,45.349235,-75.657558,,,0,,,,,
1110,0937,ROBERTSON / STAFFORD,,,45.327532,-75.820152,,,0,,,,,
1111,5291,ROBERTSON / STINSON,,,45.326585,-75.822497,,,0,,,,,
1112,0936,1951 ROBERTSON,,,45.325623,-75.824785,,,0,,,,,
1113,5277,OLD RICHMOND / KIMBERLEY,,,45.322843,-75.826128,,,0,,,,,
1114,0923,OLD RICHMOND / TANGLEWOOD,,,45.319695,-75.82666,,,0,,,,,
1115,5275,OLD RICHMOND / AD. 3924,,,45.317025,-75.827535,,,0,,,,,
1116,5274,OLD RICHMOND / ARNOLD,,,45.316072,-75.827828,,,0,,,,,
1117,0924,OLD RICHMOND / MOODIE,,,45.315372,-75.828752,,,0,,,,,
1118,0925,MOODIE / TYRELL,,,45.316922,-75.830055,,,0,,,,,
1119,5281,MOODIE / HADLEY,,,45.321127,-75.832558,,,0,,,,,
112,2962,HUNT CLUB / MCCARTHY,,,45.347415,-75.662088,,,0,,,,,
1120,5287,ROBERTSON / MOODIE,,,45.321722,-75.834402,,,0,,,,,
1121,5286,ROBERTSON / FITZGERALD,,,45.320832,-75.836627,,,0,,,,,
1122,0930,ROBERTSON / FITZGERALD,,,45.319552,-75.839702,,,0,,,,,
1123,0914,ROBERTSON / WESTCLIFFE,,,45.318655,-75.841825,,,0,,,,,
1124,5377,ROBERTSON / MILL HILL,,,45.317668,-75.844177,,,0,,,,,
1125,5376,2405 ROBERTSON,,,45.315627,-75.848945,,,0,,,,,
1126,5381,ROBERTSON / HAANEL,,,45.311462,-75.858912,,,0,,,,,
1127,5383,2775 ROBERTSON,,,45.308808,-75.865372,,,0,,,,,
1128,5390,ROBERTSON / GREENBELT,,,45.305708,-75.872842,,,0,,,,,
1129,6242,HAZELDEAN MALL / EAST STOP,,,45.301098,-75.876952,,,0,,,,,
113,1921,HUNT CLUB / UPLANDS,,,45.34496,-75.666498,,,0,,,,,
1130,5603,HAZELDEAN / EAGLESON,,,45.303642,-75.87808,,,0,,,,,
1131,0828,HAZELDEAN / IRWIN GATE,,,45.302458,-75.880727,,,0,,,,,
1132,6253,436 HAZELDEAN,,,45.300852,-75.884103,,,0,,,,,
1133,5644,HAZELDEAN / CASTLEFRANK,,,45.299103,-75.887028,,,0,,,,,
1134,6384,HAZELDEAN / CASTLEFRANK,,,45.29761,-75.889365,,,0,,,,,
1135,3504,HAZELDEAN / EDGEWATER,,,45.294742,-75.893847,,,0,,,,,
1136,6381,TERRY FOX / EDGEWATER,,,45.296728,-75.900777,,,0,,,,,
1137,6380,TERRY FOX / MAPLE GROVE,,,45.299097,-75.903702,,,0,,,,,
1138,6379,TERRY FOX / KATIMAVIK,,,45.300828,-75.905783,,,0,,,,,
1139,0805,KATIMAVIK / TERRY FOX,,,45.302608,-75.906802,,,0,,,,,
114,1704,HUNT CLUB / PAUL ANKA,,,45.342988,-75.671458,,,0,,,,,
1140,6167,KATIMAVIK / PATHWAY,,,45.303633,-75.906022,,,0,,,,,
1141,6168,KATIMAVIK / CURRAN,,,45.304612,-75.905203,,,0,,,,,
1142,6169,KATIMAVIK / SEWELL,,,45.30686,-75.901715,,,0,,,,,
1144,3361,CASTLEFRANK / AIRD,,,45.30992,-75.900197,,,0,,,,,
1145,0432,LORD BYNG / KANATA,,,45.311727,-75.905477,,,0,,,,,
1147,5289,ROBERTSON / VANIER,,,45.323963,-75.828727,,,0,,,,,
1153,7557,ELGIN / WELLINGTON,,,45.424242,-75.69476,,,0,,,,,
1154,2351,RIDEAU / CUMBERLAND,,,45.427802,-75.687902,,,0,,,,,
1155,7595,RIDEAU / KING EDWARD,,,45.429021,-75.684974,,,0,,,,,
1156,2333,RIDEAU / NELSON,,,45.429605,-75.683551,,,0,,,,,
1157,7593,RIDEAU / FRIEL,,,45.430298,-75.681908,,,0,,,,,
1159,2331,RIDEAU / AUGUSTA,,,45.431467,-75.678985,,,0,,,,,
116,4195,HUNT CLUB / BILLY BISHOP,,,45.339445,-75.681512,,,0,,,,,
1160,7590,RIDEAU / CHARLOTTE,,,45.432825,-75.675835,,,0,,,,,
1162,1575,MONTRÉAL / MONTGOMERY,,,45.43335,-75.668455,,,0,,,,,
1167,7058,MONTRÉAL / LACASSE,,,45.437338,-75.65813,,,0,,,,,
117,1923,HUNT CLUB / NORTH BOWESVILLE,,,45.338013,-75.684992,,,0,,,,,
1170,8740,MONTRÉAL / DE L'ÉGLISE,,,45.439572,-75.651312,,,0,,,,,
1171,7060,MONTRÉAL / NOTRE-DAME CEMETERY,,,45.440145,-75.649548,,,0,,,,,
1173,1896,MONTRÉAL / ST-LAURENT,,,45.441213,-75.64628,,,0,,,,,
1174,8733,MONTRÉAL / CENTER,,,45.442127,-75.643497,,,0,,,,,
1176,1511,MONTRÉAL / MONTFORT HOSPITAL,,,45.44403,-75.637675,,,0,,,,,
1177,1565,MONTRÉAL / DEN HAAG,,,45.444715,-75.635585,,,0,,,,,
1178,8634,MONTRÉAL / CARSONS,,,45.446065,-75.631348,,,0,,,,,
118,4196,HUNT CLUB / LINDBERGH,,,45.336503,-75.688712,,,0,,,,,
1180,4411,MONTRÉAL / BATHGATE,,,45.44709,-75.624585,,,0,,,,,
1182,8647,MONTRÉAL / BLAIR,,,45.446257,-75.613848,,,0,,,,,
1183,2570,MONTRÉAL / ELWOOD,,,45.445882,-75.609875,,,0,,,,,
1184,2569,MONTRÉAL / AD. 1777,,,45.445597,-75.607237,,,0,,,,,
1185,2568,MONTRÉAL / ELMSMERE,,,45.44516,-75.603715,,,0,,,,,
1186,2567,MONTRÉAL / BETHAMY,,,45.44508,-75.600172,,,0,,,,,
1187,2566,MONTRÉAL / BETHAMY,,,45.445597,-75.597922,,,0,,,,,
1188,8649,MONTRÉAL / OGILVIE,,,45.446733,-75.595372,,,0,,,,,
1189,8706,OGILVIE / MONTRÉAL,,,45.44686,-75.59398,,,0,,,,,
119,6124,HUNT CLUB / RIVERSIDE,,,45.335717,-75.69038,,,0,,,,,
1190,1975,OGILVIE / L B PEARSON H.S.,,,45.44443,-75.59553,,,0,,,,,
1191,8657,JASMINE / OGILVIE,,,45.442527,-75.595784,,,0,,,,,
1192,2583,JASMINE / BEAVERHILL,,,45.441581,-75.594864,,,0,,,,,
1193,2584,JASMINE / ARROWSMITH,,,45.439916,-75.594856,,,0,,,,,
1194,2585,JASMINE / OGILVIE,,,45.439778,-75.597803,,,0,,,,,
1195,2577,OGILVIE / APPLEFORD,,,45.439422,-75.599162,,,0,,,,,
1196,8664,OGILVIE / ARMSTRONG ARENA,,,45.438412,-75.60145,,,0,,,,,
1197,1563,OGILVIE / ELMLEA,,,45.437633,-75.603445,,,0,,,,,
1198,5821,OGILVIE / DUNHAM,,,45.436345,-75.6066,,,0,,,,,
120,5815,HUNT CLUB / PRINCE OF WALES,,,45.33447,-75.702207,,,0,,,,,
1200,3556,OGILVIE / BLAIR,,,45.435512,-75.608127,,,0,,,,,
1201,8658,OGILVIE / DUNHAM,,,45.436362,-75.606043,,,0,,,,,
1202,8665,OGILVIE / ELMLEA,,,45.43757,-75.603103,,,0,,,,,
1203,2576,EARL ARMSTRONG ARENA,,,45.438437,-75.601062,,,0,,,,,
1204,2582,JASMINE / OGILVIE,,,45.439692,-75.597763,,,0,,,,,
1205,2581,JASMINE / ARROWSMITH,,,45.439707,-75.594902,,,0,,,,,
1206,2580,JASMINE / BEAVERHILL,,,45.441472,-75.594655,,,0,,,,,
1208,8698,OGILVIE / L B PEARSON H.S.,,,45.444405,-75.595395,,,0,,,,,
1209,8699,OGILVIE / MONTRÉAL,,,45.446065,-75.593598,,,0,,,,,
121,6096,ANTARES / WEST HUNT CLUB,,,45.335415,-75.706283,,,0,,,,,
1210,8703,MONTRÉAL / OGILVIE,,,45.447067,-75.594982,,,0,,,,,
1211,2564,MONTRÉAL / AD. 2038,,,45.446303,-75.596762,,,0,,,,,
1212,2565,MONTRÉAL / FOXBOROUGH,,,45.445533,-75.598843,,,0,,,,,
1213,8650,MONTRÉAL / MARQUIS PARK,,,45.445192,-75.60041,,,0,,,,,
1214,2571,MONTRÉAL / ELMSMERE,,,45.445278,-75.60304,,,0,,,,,
1215,2572,MONTRÉAL / AD. 1777,,,45.445683,-75.607013,,,0,,,,,
1216,2573,MONTRÉAL / BECKENHAM,,,45.44605,-75.609407,,,0,,,,,
1217,8648,MONTRÉAL / CLOVELLY,,,45.4462,-75.611075,,,0,,,,,
1218,2574,MONTRÉAL / BLAIR,,,45.446367,-75.613085,,,0,,,,,
1219,8640,MONTRÉAL / BLAIR,,,45.446613,-75.616153,,,0,,,,,
122,1968,ANTARES / CAPELLA,,,45.333532,-75.70893,,,0,,,,,
1220,8636,MONTRÉAL / NRC,,,45.446757,-75.618362,,,0,,,,,
1221,4412,MONTRÉAL / BATHGATE,,,45.447337,-75.625992,,,0,,,,,
1222,8635,MONTRÉAL / FOXVIEW,,,45.446622,-75.62979,,,0,,,,,
1223,4409,MONTRÉAL / CODDS,,,45.446168,-75.63169,,,0,,,,,
1224,8738,MONTRÉAL / LANGS,,,45.444793,-75.635942,,,0,,,,,
1225,8603,MONTRÉAL / MONTFORT HOSPITAL,,,45.444358,-75.6373,,,0,,,,,
1226,1895,MONTRÉAL / BRITTANY,,,45.442632,-75.64249,,,0,,,,,
1227,8731,MONTRÉAL / HILLSIDE,,,45.442147,-75.643968,,,0,,,,,
1229,0927,MONTRÉAL / NOTRE-DAME CEMETERY,,,45.440232,-75.649603,,,0,,,,,
123,6092,ANTARES / AURIGA,,,45.330957,-75.709407,,,0,,,,,
1232,1543,MONTRÉAL / GRANVILLE,,,45.438245,-75.655827,,,0,,,,,
1236,8947,MONTRÉAL / EMOND,,,45.43518,-75.66412,,,0,,,,,
1237,8783,MONTRÉAL / VANIER,,,45.43421,-75.66664,,,0,,,,,
1238,8781,MONTRÉAL / NORTH RIVER,,,45.433075,-75.669526,,,0,,,,,
1239,1845,RIDEAU / WURTEMBURG,,,45.433422,-75.674837,,,0,,,,,
124,6090,ANTARES / AURIGA,,,45.329773,-75.708325,,,0,,,,,
1242,7591,RIDEAU / CHAPEL,,,45.430925,-75.680725,,,0,,,,,
1244,7594,RIDEAU / NELSON,,,45.42963,-75.683857,,,0,,,,,
1245,1658,RIDEAU / KING EDWARD,,,45.42849,-75.686496,,,0,,,,,
1246,7596,RIDEAU / DALHOUSIE,,,45.427333,-75.689277,,,0,,,,,
1248,0470,DEN HAAG / MERGANSER,,,45.43958,-75.632255,,,0,,,,,
1249,0469,DEN HAAG / BOREALIS,,,45.440875,-75.633407,,,0,,,,,
125,6091,43 AURIGA,,,45.330162,-75.7061,,,0,,,,,
1250,0468,DEN HAAG / CARWOOD,,,45.442347,-75.634337,,,0,,,,,
1251,0467,DEN HAAG / MONTRÉAL,,,45.444087,-75.635505,,,0,,,,,
1253,8542,BLAIR / CROWNHILL,,,45.436163,-75.609477,,,0,,,,,
1254,8646,CROWNHILL / DUNHAM,,,45.437108,-75.60687,,,0,,,,,
1255,8592,CROWNHILL / APPLEFORD,,,45.440097,-75.606577,,,0,,,,,
1256,8642,STEEL / CROWNHILL,,,45.442028,-75.60811,,,0,,,,,
1257,8593,MOWAT / STEEL,,,45.441965,-75.608905,,,0,,,,,
1258,8622,MOWAT / ELVINA,,,45.442878,-75.611075,,,0,,,,,
1259,8691,MOWAT / BLAIR,,,45.442417,-75.612807,,,0,,,,,
126,6089,AURIGA / DEAKIN,,,45.331298,-75.704678,,,0,,,,,
1260,8746,BLAIR / SEGUIN,,,45.445,-75.614317,,,0,,,,,
1261,8748,BLAIR / MONTRÉAL,,,45.445858,-75.61477,,,0,,,,,
1262,1789,BLAIR / MONTRÉAL,,,45.446915,-75.615287,,,0,,,,,
1263,8843,BLAIR / NICOL,,,45.448425,-75.616113,,,0,,,,,
1264,8846,BLAIR / DAVIDSON,,,45.449897,-75.616917,,,0,,,,,
1265,8848,BLAIR / SWANS,,,45.453043,-75.618608,,,0,,,,,
1266,1783,BLAIR / SWANS,,,45.45379,-75.619022,,,0,,,,,
1267,8180,BLAIR / BRIARCLIFF,,,45.45859,-75.621685,,,0,,,,,
1268,8865,BLAIR / MASSEY,,,45.460243,-75.622598,,,0,,,,,
1269,8886,MASSEY / REBECCA,,,45.46099,-75.616567,,,0,,,,,
127,1955,MACFARLANE / DEAKIN,,,45.330305,-75.70366,,,0,,,,,
1270,8181,DELONG / MASSEY,,,45.460895,-75.613888,,,0,,,,,
1271,8915,DELONG / COMBERMERE,,,45.460052,-75.61342,,,0,,,,,
1272,8919,DELONG / REBECCA,,,45.458145,-75.612347,,,0,,,,,
1273,8182,DELONG / KAYMAR,,,45.456755,-75.610082,,,0,,,,,
1274,8923,DELONG / ORIOLE,,,45.45468,-75.608953,,,0,,,,,
1275,8942,ROTHWELL / DELONG,,,45.451915,-75.608238,,,0,,,,,
1276,8943,ROTHWELL / WICK,,,45.451103,-75.607728,,,0,,,,,
1277,8654,WICK / COXFORD,,,45.452915,-75.611655,,,0,,,,,
1278,8827,SWANS / WREN,,,45.453448,-75.61423,,,0,,,,,
1279,8829,SWANS / WHIPPOORWILL,,,45.453822,-75.616328,,,0,,,,,
128,1608,MACFARLANE / GREENSIDE,,,45.328867,-75.706387,,,0,,,,,
1280,8830,SWANS / BLAIR,,,45.45313,-75.618458,,,0,,,,,
1281,8833,BLAIR / DAVIDSON,,,45.449952,-75.617027,,,0,,,,,
1282,8842,BLAIR / NICOL,,,45.448275,-75.616137,,,0,,,,,
1283,8639,BLAIR / MONTRÉAL,,,45.446877,-75.615438,,,0,,,,,
1284,8644,ELWOOD / MONTRÉAL,,,45.44562,-75.610447,,,0,,,,,
1285,8507,CROWNHILL / SUMAC,,,45.443808,-75.608675,,,0,,,,,
1286,2340,CROWNHILL / STEEL,,,45.441813,-75.607578,,,0,,,,,
1287,8645,CROWNHILL / APPLEFORD,,,45.439628,-75.606393,,,0,,,,,
1288,8553,CROWNHILL / DUNHAM,,,45.437252,-75.606648,,,0,,,,,
1289,8554,CROWNHILL / BLAIR,,,45.436338,-75.609485,,,0,,,,,
129,6081,MACFARLANE / BRISBANE,,,45.32765,-75.709177,,,0,,,,,
1290,8659,BLAIR / OGILVIE,,,45.43575,-75.609407,,,0,,,,,
1291,8667,OGILVIE / JASMINE,,,45.440097,-75.597787,,,0,,,,,
1292,2578,OGILVIE / ELMRIDGE,,,45.441273,-75.597247,,,0,,,,,
1293,2579,OGILVIE / JASMINE,,,45.442727,-75.597238,,,0,,,,,
1294,7950,OGILVIE / NASKAPI,,,45.44876,-75.594775,,,0,,,,,
1295,7951,OGILVIE / LASSITER,,,45.449952,-75.595768,,,0,,,,,
1296,8776,OGILVIE / EASTVALE,,,45.451835,-75.596572,,,0,,,,,
1297,8707,LA VÉRENDRYE / OGILVIE,,,45.452972,-75.597803,,,0,,,,,
1298,0549,KENDER / OGILVIE,,,45.456072,-75.598972,,,0,,,,,
1299,2562,LA VÉRENDRYE / GATINEAU VIEW,,,45.452535,-75.601045,,,0,,,,,
130,6082,MACFARLANE / PINEGLEN,,,45.326173,-75.712545,,,0,,,,,
1300,2542,LA VÉRENDRYE / DEERHURST,,,45.453162,-75.60343,,,0,,,,,
1301,2543,LA VÉRENDRYE / THOMAS D'ARCY MCGEE SCHOOL,,,45.454458,-75.605328,,,0,,,,,
1302,8708,LA VÉRENDRYE / MELDRUM,,,45.45565,-75.605973,,,0,,,,,
1303,2544,LA VÉRENDRYE / GLENFERN,,,45.457548,-75.605988,,,0,,,,,
1304,2545,LA VÉRENDRYE / KINGS GROVE,,,45.459853,-75.607237,,,0,,,,,
1305,2546,LA VÉRENDRYE / QUINCY,,,45.460768,-75.607737,,,0,,,,,
1306,8709,QUINCY / RIVERSHORE,,,45.461317,-75.606283,,,0,,,,,
1307,2548,QUINCY / OGILVIE,,,45.461562,-75.603278,,,0,,,,,
1308,8704,EASTVALE / OGILVIE,,,45.460918,-75.601863,,,0,,,,,
1309,2550,EASTVALE / FILLMORE,,,45.460823,-75.596937,,,0,,,,,
131,6083,MACFARLANE / BELLEDUNE,,,45.325307,-75.71458,,,0,,,,,
1310,8710,EASTVALE / CASEY,,,45.459663,-75.596317,,,0,,,,,
1311,2552,EASTVALE / KENDER,,,45.457103,-75.59495,,,0,,,,,
1312,2553,EASTVALE / GRAFTON,,,45.455268,-75.5946,,,0,,,,,
1313,2554,EASTVALE / HUBBARD,,,45.453942,-75.593868,,,0,,,,,
1314,2555,EASTVALE / LOYOLA,,,45.452392,-75.593742,,,0,,,,,
1315,8908,OGILVIE / LASSITER,,,45.451223,-75.59646,,,0,,,,,
1316,8782,OGILVIE / NASKAPI,,,45.449553,-75.595682,,,0,,,,,
1317,8700,OGILVIE / MONTRÉAL,,,45.448043,-75.59468,,,0,,,,,
1318,3557,OGILVIE / ELMRIDGE,,,45.44264,-75.597413,,,0,,,,,
132,6084,MACFARLANE / MERIVALE,,,45.324147,-75.717338,,,0,,,,,
1320,2022,MEADOWBROOK / BLAIR,,,45.42696,-75.601125,,,0,,,,,
1321,8502,APPLETON / MEADOWBROOK,,,45.426173,-75.603453,,,0,,,,,
1322,7696,BEAVERPOND / HALLMARK,,,45.423265,-75.6013,,,0,,,,,
1323,7700,BLAIR / BEAVERPOND,,,45.422835,-75.59762,,,0,,,,,
1324,8514,BLAIR / INNES,,,45.421087,-75.596675,,,0,,,,,
1325,8500,MAXIME / CYRVILLE,,,45.417343,-75.605067,,,0,,,,,
1326,5731,MAXIME / RIDGEBROOK,,,45.42123,-75.607093,,,0,,,,,
1327,7690,RIDGEBROOK / MEADOWBROOK,,,45.420785,-75.609232,,,0,,,,,
1328,5732,MEADOWBROOK / EASTCLIFFE,,,45.423002,-75.611632,,,0,,,,,
1329,6347,MEADOWBROOK / BORTOLOTTI,,,45.424242,-75.610653,,,0,,,,,
133,6104,MERIVALE / SLACK,,,45.325672,-75.718823,,,0,,,,,
1330,6348,MEADOWBROOK / MAXIME,,,45.424647,-75.609303,,,0,,,,,
1331,8501,MEADOWBROOK / AURELE,,,45.425117,-75.60753,,,0,,,,,
1332,8987,MEADOWBROOK / STONERIDGE,,,45.42572,-75.605512,,,0,,,,,
1333,2023,MEADOWBROOK / APPLETON,,,45.426667,-75.60343,,,0,,,,,
1334,1226,BLAIR / MEADOWBROOK,,,45.427675,-75.600855,,,0,,,,,
1339,3711,OGILVIE / CUMMINGS,,,45.4263,-75.63103,,,0,,,,,
134,8117,MERIVALE / CLEOPATRA,,,45.327707,-75.719865,,,0,,,,,
1340,2500,OGILVIE / BEAULIEU,,,45.426983,-75.62933,,,0,,,,,
1341,8521,OGILVIE / AVIATION,,,45.428168,-75.626293,,,0,,,,,
1342,4442,OGILVIE / PALMERSTON,,,45.429447,-75.62313,,,0,,,,,
1343,4443,OGILVIE / CADBORO,,,45.430695,-75.620055,,,0,,,,,
1344,8513,OGILVIE / CITY PARK,,,45.43184,-75.617297,,,0,,,,,
1345,4444,OGILVIE / AD. 1820,,,45.43265,-75.615247,,,0,,,,,
1346,1927,CITY PARK / OGILVIE,,,45.432905,-75.612743,,,0,,,,,
1347,7953,OGILVIE / MONTREAL,,,45.44748,-75.593598,,,0,,,,,
1348,7952,MONTRÉAL / SINCLAIR,,,45.44876,-75.590842,,,0,,,,,
1349,8702,MONTRÉAL / SHEFFORD,,,45.450015,-75.587702,,,0,,,,,
135,0606,MERIVALE / BONGARD,,,45.329605,-75.720978,,,0,,,,,
1350,8728,MONTRÉAL / R.R. 174,,,45.450945,-75.584905,,,0,,,,,
1351,2369,ST JOSEPH / R.R. 174,,,45.451883,-75.581988,,,0,,,,,
1352,8191,ST JOSEPH / BEARBROOK,,,45.453845,-75.573953,,,0,,,,,
1353,2630,ST JOSEPH / AD. 1300,,,45.455658,-75.570767,,,0,,,,,
1354,2631,ST JOSEPH / HART,,,45.456397,-75.569375,,,0,,,,,
1355,2632,ST JOSEPH / AD. 1360,,,45.45793,-75.565672,,,0,,,,,
1356,8193,ST JOSEPH / RCMP,,,45.458622,-75.563765,,,0,,,,,
1357,2638,ST JOSEPH / AD. 1533,,,45.459647,-75.560593,,,0,,,,,
1358,2639,ST JOSEPH / AD. 1510,,,45.460577,-75.553092,,,0,,,,,
1359,2640,ST JOSEPH / FOREST VALLEY,,,45.461403,-75.548642,,,0,,,,,
136,0605,MERIVALE / BENTLEY,,,45.331195,-75.72186,,,0,,,,,
1360,8100,ST JOSEPH / AD. 1820,,,45.461943,-75.546018,,,0,,,,,
1361,2643,ST JOSEPH / CHANTS D'OISEAUX,,,45.462492,-75.543785,,,0,,,,,
1362,2644,ST JOSEPH / MARENGER,,,45.463422,-75.541647,,,0,,,,,
1363,8123,JEANNE D'ARC / ST JOSEPH,,,45.464638,-75.540368,,,0,,,,,
1364,8898,GREY NUNS / JEANNE D'ARC,,,45.46664,-75.542045,,,0,,,,,
1365,7942,GREY NUNS / HARVEST,,,45.468858,-75.542737,,,0,,,,,
1366,6621,GREY NUNS / MEADOWVIEW,,,45.469797,-75.540972,,,0,,,,,
1367,7944,GREY NUNS / FRIAR,,,45.470575,-75.537777,,,0,,,,,
1368,7945,GREY NUNS / SUNDOWN,,,45.469128,-75.536887,,,0,,,,,
1369,7946,GREY NUNS / LUMBERMAN,,,45.467348,-75.536648,,,0,,,,,
137,1615,MERIVALE / JAMIE,,,45.333245,-75.723037,,,0,,,,,
1370,5833,ST JOSEPH / GREY NUNS,,,45.466077,-75.535807,,,0,,,,,
1371,7795,ST JOSEPH / BOYER,,,45.467435,-75.532787,,,0,,,,,
1372,1770,ST JOSEPH / ORLÉANS,,,45.4685,-75.530735,,,0,,,,,
1373,8909,ST JOSEPH / BOYER,,,45.467142,-75.533755,,,0,,,,,
1374,8121,GREY NUNS / ST JOSEPH,,,45.466332,-75.536568,,,0,,,,,
1375,7947,GREY NUNS / SUNDOWN,,,45.468922,-75.536712,,,0,,,,,
1376,7948,GREY NUNS / FRIAR,,,45.470202,-75.537412,,,0,,,,,
1377,6622,GREY NUNS / MEADOWVIEW,,,45.469763,-75.54117,,,0,,,,,
1378,7949,GREY NUNS / HARVEST,,,45.469033,-75.542712,,,0,,,,,
138,6099,MERIVALE / WEST HUNT CLUB,,,45.33567,-75.724395,,,0,,,,,
1381,1831,JEANNE D'ARC / ST JOSEPH,,,45.46471,-75.540725,,,0,,,,,
1382,8463,ST JOSEPH / JEANNE D'ARC,,,45.464002,-75.54075,,,0,,,,,
1383,2642,ST JOSEPH / MARENGER,,,45.463183,-75.542513,,,0,,,,,
1384,2641,ST JOSEPH / CHANTS D'OISEAUX,,,45.46258,-75.543912,,,0,,,,,
1385,8120,ST JOSEPH / YOUVILLE,,,45.461737,-75.547687,,,0,,,,,
1386,2637,ST JOSEPH / GOLDEN VALLEY,,,45.460752,-75.553258,,,0,,,,,
1387,2636,ST JOSEPH / AD. 1533,,,45.459853,-75.56076,,,0,,,,,
1388,8194,ST JOSEPH / RCMP,,,45.4589,-75.563573,,,0,,,,,
1389,2635,ST JOSEPH / AD. 1360,,,45.458058,-75.565935,,,0,,,,,
139,5735,MERIVALE / ROYDON,,,45.337258,-75.725302,,,0,,,,,
1390,2634,ST JOSEPH / HART,,,45.456572,-75.569573,,,0,,,,,
1391,2633,ST JOSEPH / AD. 1207,,,45.455793,-75.571005,,,0,,,,,
1392,8990,ST JOSEPH / BEARBROOK,,,45.453138,-75.576193,,,0,,,,,
1393,5682,ST JOSEPH / R.R. 174,,,45.451835,-75.58237,,,0,,,,,
1394,8757,MONTRÉAL / R.R. 174,,,45.451032,-75.585112,,,0,,,,,
1395,1539,MONTRÉAL / SHEFFORD,,,45.449817,-75.588735,,,0,,,,,
1396,2563,MONTRÉAL / MISS OTTAWA,,,45.448393,-75.592065,,,0,,,,,
1398,4446,CITY PARK / OGILVIE,,,45.432397,-75.612298,,,0,,,,,
1399,4445,OGILVIE / CITY PARK,,,45.433453,-75.613737,,,0,,,,,
14,5231,2655 QUEENSVIEW,,,45.353598,-75.786035,,,0,,,,,
140,1636,MERIVALE / ROYDON,,,45.338467,-75.726017,,,0,,,,,
1400,8661,OGILVIE / AD. 1820,,,45.432667,-75.615565,,,0,,,,,
1401,1980,OGILVIE / BATHGATE,,,45.431617,-75.618235,,,0,,,,,
1402,4441,OGILVIE / CADBORO,,,45.430442,-75.621143,,,0,,,,,
1403,4440,OGILVIE / MATHESON,,,45.429248,-75.624068,,,0,,,,,
1405,8424,OGILVIE / AD. 1195,,,45.427103,-75.629267,,,0,,,,,
1407,2462,CYRVILLE / JOSEPH CYR,,,45.42444,-75.634813,,,0,,,,,
141,1635,MERIVALE / COLONNADE,,,45.340732,-75.727375,,,0,,,,,
1410,8982,BEARBROOK / ST JOSEPH,,,45.452438,-75.575137,,,0,,,,,
1411,8981,BEARBROOK / LAFARGE ASPHALT,,,45.446423,-75.577252,,,0,,,,,
1412,2587,BEARBROOK / HORNET'S NEST PARK,,,45.444658,-75.576265,,,0,,,,,
1413,2588,BEARBROOK / HORNET'S NEST PARK,,,45.44318,-75.575495,,,0,,,,,
1415,8689,WESTPARK / VALEWOOD,,,45.438802,-75.572848,,,0,,,,,
1416,1161,WESTPARK / PARKRIDGE,,,45.43772,-75.573683,,,0,,,,,
1417,2592,WESTPARK / PARKRIDGE,,,45.43575,-75.573953,,,0,,,,,
1418,8690,WESTPARK / PARKWOOD,,,45.435455,-75.572427,,,0,,,,,
1419,2594,WESTPARK / HIGHPARK,,,45.437475,-75.570178,,,0,,,,,
142,4022,MERIVALE / VIEWMOUNT,,,45.343743,-75.7291,,,0,,,,,
1420,2595,WESTPARK / BEARBROOK,,,45.438205,-75.567825,,,0,,,,,
1421,8693,BEARBROOK / CENTREPARK,,,45.436568,-75.567213,,,0,,,,,
1422,8695,NORTHPARK / BEARBROOK,,,45.435273,-75.56591,,,0,,,,,
1423,2602,NORTHPARK / RIDGEBURN,,,45.43575,-75.563392,,,0,,,,,
1424,8196,RIDGEBURN / EASTPARK,,,45.43575,-75.560172,,,0,,,,,
1425,2603,EASTPARK / BEECHMONT,,,45.437863,-75.559998,,,0,,,,,
1426,2604,EASTPARK / OAKHURST,,,45.438038,-75.557972,,,0,,,,,
1427,2605,EASTPARK / RED MAPLE,,,45.43695,-75.554975,,,0,,,,,
1428,8678,TAUVETTE / INNES,,,45.428677,-75.572968,,,0,,,,,
1429,8936,BEARBROOK / CENTREPARK,,,45.434272,-75.565967,,,0,,,,,
143,0316,MERIVALE / AD. 1642,,,45.345842,-75.730317,,,0,,,,,
1430,5927,BLACKBURN ARENA,,,45.429742,-75.563852,,,0,,,,,
1431,2615,TAUVETTE / AD. 19,,,45.430537,-75.574065,,,0,,,,,
1432,2616,TAUVETTE / SOUTHPARK,,,45.43265,-75.575233,,,0,,,,,
1433,8679,SOUTHPARK / WOODBURN,,,45.433029,-75.574361,,,0,,,,,
1434,2619,SOUTHPARK / WOODBURN,,,45.432388,-75.569582,,,0,,,,,
1435,8025,SOUTHPARK / INNES,,,45.431395,-75.566832,,,0,,,,,
1436,2618,SOUTHPARK / WOODVIEW,,,45.433405,-75.57145,,,0,,,,,
1437,2608,EASTPARK / INNES,,,45.436083,-75.554332,,,0,,,,,
1438,2607,EASTPARK / RED MAPLE,,,45.437005,-75.554967,,,0,,,,,
1439,2606,EASTPARK / OAKHURST,,,45.438133,-75.557947,,,0,,,,,
144,5846,MERIVALE / FAMILY BROWN,,,45.347765,-75.7315,,,0,,,,,
1440,8195,EASTPARK / BEECHMONT,,,45.437975,-75.55995,,,0,,,,,
1441,2601,RIDGEBURN / DICEMAN,,,45.43571,-75.561062,,,0,,,,,
1442,2600,NORTHPARK / BURNVIEW,,,45.435512,-75.564138,,,0,,,,,
1443,8684,NORTHPARK / BEARBROOK,,,45.435257,-75.566252,,,0,,,,,
1444,8692,BEARBROOK / CENTREPARK,,,45.436568,-75.56715,,,0,,,,,
1445,8676,WESTPARK / BEARBROOK,,,45.438213,-75.568263,,,0,,,,,
1446,8688,WESTPARK / HIGHPARK,,,45.437578,-75.57021,,,0,,,,,
1447,2593,WESTPARK / PARKWOOD,,,45.435527,-75.572053,,,0,,,,,
1448,8686,WESTPARK / PARKRIDGE,,,45.435957,-75.574112,,,0,,,,,
1449,1162,WESTPARK / PARKRIDGE,,,45.437673,-75.57373,,,0,,,,,
145,4521,MEADOWLANDS / BAYNE,,,45.350745,-75.734265,,,0,,,,,
1450,8687,WESTPARK / VALEWOOD,,,45.439255,-75.571657,,,0,,,,,
1451,2586,BEARBROOK / WESTPARK,,,45.440375,-75.570552,,,0,,,,,
1452,2591,BEARBROOK / HORNET'S NEST PARK,,,45.443347,-75.575432,,,0,,,,,
1453,2590,BEARBROOK / HORNET'S NEST PARK,,,45.444333,-75.575987,,,0,,,,,
1454,5612,BEARBROOK / LAFARGE ASPHALT,,,45.446828,-75.577338,,,0,,,,,
1455,8192,BEARBROOK / ST JOSEPH,,,45.452065,-75.575018,,,0,,,,,
1456,1841,CITY PARK / AD. 2280,,,45.430465,-75.612863,,,0,,,,,
1457,4447,CITY PARK / HARPER,,,45.428978,-75.614977,,,0,,,,,
1458,4448,CITY PARK / JOBIN,,,45.430227,-75.616678,,,0,,,,,
1459,4433,BATHGATE / OGILVIE,,,45.432154,-75.618061,,,0,,,,,
146,4520,MEADOWLANDS / JOAN,,,45.349943,-75.736237,,,0,,,,,
1460,4432,BATHGATE / RAINBOW,,,45.43486,-75.618775,,,0,,,,,
1461,8826,BATHGATE / MATHESON,,,45.43656,-75.619793,,,0,,,,,
1462,1400,MATHESON / BATHGATE,,,45.436655,-75.621088,,,0,,,,,
1463,8522,MATHESON / ALBORO,,,45.43579,-75.62313,,,0,,,,,
1464,3316,MATHESON / CHARLTON,,,45.434812,-75.625595,,,0,,,,,
1465,4437,CHARLTON / ALLOWAY,,,45.436608,-75.62685,,,0,,,,,
1466,4436,CHARLTON / PLUMBER,,,45.437458,-75.627533,,,0,,,,,
1467,8523,PLUMBER / CLOSSE,,,45.438713,-75.624935,,,0,,,,,
1468,8632,BATHGATE / PLUMBER,,,45.440343,-75.622042,,,0,,,,,
147,2985,MEADOWLANDS / PETER,,,45.348807,-75.739257,,,0,,,,,
1470,3583,DEN HAAG / BATHGATE,,,45.441189,-75.626236,,,0,,,,,
1476,8637,CARSONS / MONTRÉAL,,,45.44543,-75.630617,,,0,,,,,
1477,EE299,CARSONS / BERMUDA,,,45.44396,-75.629743,,,,,,0,,
1478,4426,DEN HAAG / LA CITÉ,,,45.440963,-75.627422,,,0,,,,,
1479,1582,DEN HAAG / BATHGATE,,,45.441242,-75.62515,,,0,,,,,
148,4519,MEADOWLANDS / SAVUTO,,,45.347647,-75.742165,,,0,,,,,
1480,4675,BATHGATE / DEN HAAG,,,45.441457,-75.622742,,,0,,,,,
1481,4430,BATHGATE / PLUMBER,,,45.440057,-75.621923,,,0,,,,,
1487,8828,BATHGATE / MATHESON,,,45.436743,-75.620008,,,0,,,,,
1488,4431,BATHGATE / RAINBOW,,,45.434955,-75.618935,,,0,,,,,
1489,4451,CITY PARK / OGILVIE,,,45.43126,-75.617552,,,0,,,,,
149,2986,MEADOWLANDS / INDIAN,,,45.346828,-75.744327,,,0,,,,,
1490,4450,CITY PARK / JOBIN,,,45.429757,-75.616535,,,0,,,,,
1491,4449,CITY PARK / AD. 1990,,,45.428843,-75.615,,,0,,,,,
1492,1778,CITY PARK / AD. 2280,,,45.43106,-75.612117,,,0,,,,,
1493,3028,PLACE D'ORLÉANS E,,,45.478237,-75.519482,,,0,3028_stn,,,,E
1497,7904,JEANNE-D'ARC N / PRESTIGE,,,45.491993,-75.496372,,,0,,,,,
1498,7967,JEANNE D'ARC / HARLEQUIN,,,45.488942,-75.506592,,,0,,,,,
1499,7906,JEANNE D'ARC / HARLEQUIN,,,45.48782,-75.508483,,,0,,,,,
150,4516,MEADOWLANDS / VIEWMOUNT,,,45.345285,-75.748308,,,0,,,,,
1500,8149,JEANNE D'ARC / KINGFISHER,,,45.48778,-75.510645,,,0,,,,,
1501,7908,JEANNE D'ARC / MILLROAD,,,45.487704,-75.512856,,,0,,,,,
1502,7909,JEANNE D'ARC / LAWNSBERRY,,,45.486677,-75.515023,,,0,,,,,
1503,8150,JEANNE D'ARC / WILLOW,,,45.485333,-75.517113,,,0,,,,,
1505,8143,JEANNE D'ARC / BILBERRY,,,45.483275,-75.523655,,,0,,,,,
1506,7911,JEANNE D'ARC / DÉCARIE,,,45.482417,-75.526667,,,0,,,,,
1507,8152,JEANNE D'ARC / AVIGNON,,,45.482288,-75.530418,,,0,,,,,
1508,EL111,JEANNE DARC / BILLBERRY,,,45.48128,-75.532698,,,,,,0,,
1509,7912,JEANNE D'ARC / MILLWOOD,,,45.479412,-75.535925,,,0,,,,,
151,4016,MEADOWLANDS / THATCHER,,,45.344388,-75.750662,,,0,,,,,
1510,8154,JEANNE D'ARC / ORLÉANS,,,45.478785,-75.538207,,,0,,,,,
1511,7930,JEANNE D'ARC / PADDLER,,,45.477918,-75.543435,,,0,,,,,
1512,8161,JEANNE D'ARC / VOYAGEUR,,,45.475542,-75.547815,,,0,,,,,
1513,8162,JEANNE D'ARC / VINEYARD,,,45.472028,-75.547838,,,0,,,,,
1514,3070,JEANNE D'ARC 3A,,,45.470145,-75.5469,,,0,3070_stn,,,,3A
1515,3070,JEANNE D'ARC 3B,,,45.467669,-75.54503,,,0,3070_stn,,,,3B
1518,7788,JEANNE D'ARC / HUNTER'S RUN,,,45.461363,-75.531578,,,0,,,,,
152,6039,MEADOWLANDS / SULLIVAN,,,45.343602,-75.752727,,,0,,,,,
1520,7790,JEANNE D'ARC / ORLÉANS,,,45.462055,-75.525642,,,0,,,,,
1523,7792,JEANNE D'ARC / NATALIE,,,45.458415,-75.517702,,,0,,,,,
1524,7793,JEANNE D'ARC / FRANK BENDER,,,45.458757,-75.513967,,,0,,,,,
1525,2908,DES ÉPINETTES / SUNVIEW,,,45.459703,-75.509882,,,0,,,,,
1526,7954,DES ÉPINETTES / SILVER BARK,,,45.461157,-75.50842,,,0,,,,,
1527,3704,DES ÉPINETTES / WILDFLOWER,,,45.461658,-75.506767,,,0,,,,,
1528,7822,DES ÉPINETTES / FERNLEAF,,,45.463048,-75.50184,,,0,,,,,
1529,2419,DES ÉPINETTES / DES POMMES,,,45.463542,-75.499312,,,0,,,,,
153,4018,WOODROFFE / MEADOWLANDS,,,45.342727,-75.756868,,,0,,,,,
1530,7823,DES ÉPINETTES / LAFRANCE,,,45.464512,-75.497095,,,0,,,,,
1531,2423,DES ÉPINETTES / PRESTWICK,,,45.465727,-75.495235,,,0,,,,,
1532,7955,DES ÉPINETTES / LAMOUREUX,,,45.467205,-75.492883,,,0,,,,,
1533,6409,CHARLEMAGNE / TENTH LINE,,,45.467952,-75.490475,,,0,,,,,
1534,1887,CHARLEMAGNE / CANTEVAL,,,45.46831,-75.488822,,,0,,,,,
1535,1556,CHARLEMAGNE / GARDENWAY,,,45.468827,-75.485977,,,0,,,,,
1536,7887,CHARLEMAGNE / TOURELLE PATHWAY,,,45.469263,-75.483442,,,0,,,,,
1537,1885,CHARLEMAGNE / ORCHARDVIEW,,,45.470138,-75.48124,,,0,,,,,
1538,1854,CHARLEMAGNE / ORCHARDVIEW,,,45.470813,-75.480262,,,0,,,,,
1539,7888,CHARLEMAGNE / VALIN,,,45.473205,-75.478062,,,0,,,,,
154,2926,WOODROFFE / DAVID,,,45.344038,-75.757567,,,0,,,,,
1540,EO177,CHARLEMAGNE / MERKLEY,,,45.475892,-75.478307,,,,,,0,,
1541,7889,CHARLEMAGNE / WATTERS,,,45.477648,-75.479468,,,0,,,,,
1542,1929,CHARLEMAGNE / PATHWAY,,,45.478728,-75.481875,,,0,,,,,
1543,1693,CHARLEMAGNE / PRINCESS LOUISE,,,45.478562,-75.486223,,,0,,,,,
1544,7890,CHARLEMAGNE / BOTTRIELL,,,45.477417,-75.49003,,,0,,,,,
1545,7891,CHARLEMAGNE / PRINCESS LOUISE,,,45.477378,-75.493407,,,0,,,,,
1546,7892,CHARLEMAGNE / TENTH LINE,,,45.477663,-75.49661,,,0,,,,,
1547,8350,TOMPKINS / TENTH LINE,,,45.47706,-75.498685,,,0,,,,,
1548,8353,TOMPKINS / PRESTON,,,45.476822,-75.501752,,,0,,,,,
1549,7834,TOMPKINS / CARAVEL,,,45.475582,-75.50474,,,0,,,,,
1550,7835,TOMPKINS / BOURCIER,,,45.474152,-75.508007,,,0,,,,,
1551,8111,CHARTRAND / DUFORD,,,45.472935,-75.510677,,,0,,,,,
1552,7836,CHARTRAND / DUFORD,,,45.475955,-75.513157,,,0,,,,,
1553,5637,PLACE D'ORLÉANS / CENTRUM,,,45.478627,-75.512919,,,0,,,,,
1555,8101,ST JOSEPH / NOTRE DAME,,,45.464917,-75.538342,,,0,,,,,
1556,3028,PLACE D'ORLÉANS A,,,45.478522,-75.519323,,,0,3028_stn,,,,A
1557,8532,PLACE D'ORLÉANS / CENTRUM,,,45.478545,-75.512933,,,0,,,,,
1558,8212,DUFORD / CHARTRAND,,,45.475803,-75.513538,,,0,,,,,
1559,7837,DUFORD / JAMISON,,,45.473673,-75.51415,,,0,,,,,
1560,7838,DUFORD / CHARLEBOIS,,,45.472435,-75.513165,,,0,,,,,
1561,7839,DUFORD / CHARTRAND,,,45.472602,-75.510628,,,0,,,,,
1562,8352,TOMPKINS / BOURCIER,,,45.473913,-75.508118,,,0,,,,,
1563,7840,TOMPKINS / MCEACHERN,,,45.47551,-75.504422,,,0,,,,,
1565,7842,TOMPKINS / TENTH LINE,,,45.476925,-75.498525,,,0,,,,,
1566,1657,CHARLEMAGNE / TENTH LINE,,,45.477497,-75.496587,,,0,,,,,
1567,7893,CHARLEMAGNE / VALADE,,,45.477313,-75.493955,,,0,,,,,
1569,1731,CHARLEMAGNE / BOTTRIELL,,,45.47733,-75.4898,,,0,,,,,
1571,7894,CHARLEMAGNE / MARINOFF,,,45.47857,-75.481702,,,0,,,,,
1572,1860,CHARLEMAGNE / WATTERS,,,45.477545,-75.47954,,,0,,,,,
1573,7895,CHARLEMAGNE / MERKLEY,,,45.47582,-75.478435,,,0,,,,,
1574,1855,CHARLEMAGNE / VALIN,,,45.472895,-75.478332,,,0,,,,,
1575,7896,CHARLEMAGNE / ORCHARDVIEW,,,45.470893,-75.480223,,,0,,,,,
1576,6607,CHARLEMAGNE / ORCHARDVIEW,,,45.469708,-75.482543,,,0,,,,,
1577,1573,CHARLEMAGNE / BOTTRIELL,,,45.468842,-75.486128,,,0,,,,,
1578,6453,CHARLEMAGNE / CANTEVAL,,,45.46846,-75.4884,,,0,,,,,
1579,7866,CHARLEMAGNE / TENTH LINE,,,45.46808,-75.490427,,,0,,,,,
158,3015,QUEENSWAY STN OFF ONLY,,,45.359377,-75.772015,,,0,3015_stn,,,,
1580,2925,DES ÉPINETTES / DUVERNAY,,,45.467332,-75.492652,,,0,,,,,
1581,7815,DES ÉPINETTES / PRESTWICK,,,45.465313,-75.496053,,,0,,,,,
1582,7816,DES ÉPINETTES / LAFRANCE,,,45.464415,-75.497413,,,0,,,,,
1583,7817,DES ÉPINETTES / BONAIR,,,45.463502,-75.499693,,,0,,,,,
1584,2494,DES ÉPINETTES / WAYSIDE,,,45.463105,-75.50211,,,0,,,,,
1585,7818,DES ÉPINETTES / TURNBERRY,,,45.461897,-75.506433,,,0,,,,,
1586,7819,DES ÉPINETTES / SILVER BARK,,,45.461452,-75.507832,,,0,,,,,
1587,7820,DES ÉPINETTES / SUNVIEW,,,45.460258,-75.50997,,,0,,,,,
1588,1761,JEANNE D'ARC / DES ÉPINETTES,,,45.459408,-75.510375,,,0,,,,,
1589,7781,JEANNE D'ARC / BELCOURT,,,45.45886,-75.51407,,,0,,,,,
1590,7782,JEANNE D'ARC / NATALIE,,,45.458693,-75.518155,,,0,,,,,
1591,1760,JEANNE D'ARC / BEAUSÉJOUR,,,45.460585,-75.52038,,,0,,,,,
1592,7783,JEANNE D'ARC / MONTCERF,,,45.462405,-75.524442,,,0,,,,,
1593,7784,JEANNE D'ARC / ORLÉANS,,,45.462023,-75.527135,,,0,,,,,
1594,7785,JEANNE D'ARC / BOYER,,,45.461665,-75.52956,,,0,,,,,
1595,7786,JEANNE D'ARC / HUNTER'S RUN,,,45.461483,-75.531593,,,0,,,,,
1596,7787,JEANNE D'ARC / AD. 5810,,,45.461833,-75.535368,,,0,,,,,
1597,8122,JEANNE D'ARC / GREY NUNS,,,45.466427,-75.542783,,,0,,,,,
1599,3070,JEANNE D'ARC 4B,,,45.470518,-75.546932,,,0,3070_stn,,,,4B
160,3014,LINCOLN FIELDS 5A,,,45.365991,-75.780557,,,0,3014_stn,,,,5A
1600,8163,JEANNE D'ARC / FORTUNE,,,45.472132,-75.547767,,,0,,,,,
1601,7960,JEANNE D'ARC / VORLAGE,,,45.475757,-75.547267,,,0,,,,,
1602,8164,JEANNE D'ARC / VORLAGE,,,45.477965,-75.542593,,,0,,,,,
1603,8166,JEANNE D'ARC / ORLÉANS,,,45.47888,-75.537323,,,0,,,,,
1605,EL113,JEANNE DARC / BILBERRY,,,45.480699,-75.533083,,,,,,0,,
1606,8140,JEANNE D'ARC / AVIGNON,,,45.482297,-75.529647,,,0,,,,,
1607,7915,JEANNE D'ARC / DÉCARIE,,,45.482345,-75.52735,,,0,,,,,
1608,8213,JEANNE D'ARC / BILBERRY,,,45.483307,-75.523218,,,0,,,,,
1609,8167,JEANNE D'ARC / CHAMPLAIN,,,45.48391,-75.521413,,,0,,,,,
1610,8168,JEANNE D'ARC / CHAMPLAIN,,,45.484355,-75.51984,,,0,,,,,
1611,7916,JEANNE D'ARC / WILLOW,,,45.485167,-75.517417,,,0,,,,,
1612,7917,JEANNE D'ARC / LAWNSBERRY,,,45.486358,-75.515262,,,0,,,,,
1613,7918,JEANNE D'ARC / KINGLET,,,45.487622,-75.512855,,,0,,,,,
1614,7919,JEANNE D'ARC / LAWNSBERRY,,,45.487725,-75.510542,,,0,,,,,
1615,8169,JEANNE D'ARC / BURNT EMBER,,,45.487748,-75.508507,,,0,,,,,
1616,7966,JEANNE D'ARC / MOCKINGBIRD,,,45.48883,-75.506647,,,0,,,,,
162,2786,CARLING / TAVISTOCK,,,45.363318,-75.786638,,,0,,,,,
1620,8116,ST JOSEPH / GREY NUNS,,,45.465782,-75.536768,,,0,,,,,
1621,7794,ST JOSEPH / NOTRE DAME,,,45.465027,-75.538342,,,0,,,,,
1622,1752,ORLÉANS / ST JOSEPH,,,45.468985,-75.53049,,,0,,,,,
1623,7797,ORLÉANS / LUMBERMAN,,,45.470893,-75.532277,,,0,,,,,
1625,1534,ORLÉANS / JEANNE D'ARC,,,45.479595,-75.538118,,,0,,,,,
1626,7924,ORLÉANS / ST LOUIS,,,45.481103,-75.540297,,,0,,,,,
163,6448,CARLING / FOREST,,,45.362348,-75.78888,,,0,,,,,
1635,8178,FORTUNE / PRIORY,,,45.474835,-75.537697,,,0,,,,,
1636,7934,FORTUNE / STE-THÉRÈSE,,,45.47388,-75.53858,,,0,,,,,
1637,7935,FORTUNE / STE-THÉRÈSE,,,45.472125,-75.540567,,,0,,,,,
1638,7936,FORTUNE / ST-JÉRÔME,,,45.471273,-75.542808,,,0,,,,,
1639,8179,FORTUNE / ST AGATHE,,,45.471433,-75.54512,,,0,,,,,
164,6449,CARLING / RICHMOND,,,45.361212,-75.791455,,,0,,,,,
1640,7937,FORTUNE / JEANNE D'ARC,,,45.472657,-75.54679,,,0,,,,,
1641,7863,YOUVILLE / JEANNE D'ARC,,,45.465583,-75.543277,,,0,,,,,
1642,7725,YOUVILLE / AD. 1490,,,45.465123,-75.548688,,,0,,,,,
1643,7726,YOUVILLE / AD. 1420,,,45.4637,-75.550382,,,0,,,,,
1644,1736,YOUVILLE / ST JOSEPH,,,45.461817,-75.549412,,,0,,,,,
1645,0866,FORESTVALLEY / AD. 1402,,,45.458432,-75.545668,,,0,,,,,
1646,7728,FOREST VALLEY / FORESTGLEN,,,45.457143,-75.541862,,,0,,,,,
1647,7729,FOREST VALLEY / RIDGELEA,,,45.454577,-75.541782,,,0,,,,,
1648,7864,FOREST VALLEY / MEADOWGLEN,,,45.453018,-75.540908,,,0,,,,,
1649,7730,MEADOWGLEN / MEADOWHILL,,,45.450483,-75.543363,,,0,,,,,
165,6422,CARLING / BRITANNIA,,,45.360307,-75.793497,,,0,,,,,
1650,7731,MEADOWGLEN / WILLOWBARK,,,45.447687,-75.542737,,,0,,,,,
1651,7732,MEADOWGLEN / DU CLAIRVAUX,,,45.445485,-75.539478,,,0,,,,,
1652,7733,MEADOWGLEN / WINDFLOWER,,,45.44659,-75.535528,,,0,,,,,
1653,2479,MEADOWGLEN / ORLÉANS,,,45.447122,-75.533533,,,0,,,,,
1654,7750,MEADOWGLEN / SABLEWOOD,,,45.448012,-75.531555,,,0,,,,,
1655,1399,MEADOWGLEN / LORANGER,,,45.448927,-75.529718,,,0,,,,,
1656,7751,MEADOWGLEN / THORNCREST,,,45.44938,-75.528025,,,0,,,,,
1657,7752,MEADOWGLEN / ROBINWOOD,,,45.451152,-75.526095,,,0,,,,,
1658,7753,MEADOWGLEN / BOYER,,,45.452177,-75.524347,,,0,,,,,
1659,1757,VISENEAU / SIMARD,,,45.453773,-75.522725,,,0,,,,,
166,4957,CARLING / GREENVIEW,,,45.359305,-75.795842,,,0,,,,,
1660,7757,VISENEAU / DUCLOS,,,45.45549,-75.518417,,,0,,,,,
1661,1809,VISENEAU / D'AMOUR,,,45.453885,-75.516192,,,0,,,,,
1662,7761,VISENEAU / INNES,,,45.452042,-75.515787,,,0,,,,,
1663,0589,INNES / FRANK BENDER,,,45.453075,-75.510867,,,0,,,,,
1664,7763,INNES / AD. 3927,,,45.454298,-75.508053,,,0,,,,,
1665,1974,JEANNE D'ARC / INNES,,,45.456253,-75.504923,,,0,,,,,
1666,7765,JEANNE D'ARC / SAPINIER,,,45.457987,-75.505877,,,0,,,,,
1667,1782,SUNVIEW / DES PERDRIX,,,45.460903,-75.512115,,,0,,,,,
1668,7769,SUNVIEW / DES PERDRIX,,,45.462357,-75.513513,,,0,,,,,
1669,1763,SUNVIEW / BURNING TREE,,,45.464773,-75.514945,,,0,,,,,
167,5241,CARLING / HIGH,,,45.358668,-75.797294,,,0,,,,,
1670,7770,SUNVIEW / DES GRIVES,,,45.467182,-75.51446,,,0,,,,,
1671,7771,SUNVIEW / LARKHAVEN,,,45.467182,-75.517575,,,0,,,,,
1672,8141,BELCOURT / CARRIÈRE,,,45.467205,-75.519197,,,0,,,,,
1673,7772,BELCOURT / BARSONA,,,45.469048,-75.520213,,,0,,,,,
1674,7773,BELCOURT / NOTRE DAME,,,45.47059,-75.521278,,,0,,,,,
1675,8133,BELCOURT / ST JOSEPH,,,45.471632,-75.522415,,,0,,,,,
1676,7774,BELCOURT / NOTRE DAME,,,45.470797,-75.52158,,,0,,,,,
1677,7775,BELCOURT / LEBLANC,,,45.46839,-75.519927,,,0,,,,,
1678,7776,BELCOURT / CARRIÈRE,,,45.467475,-75.519427,,,0,,,,,
1679,1764,SUNVIEW / LARKHAVEN,,,45.467062,-75.517638,,,0,,,,,
168,4866,CARLING / RITCHIE,,,45.357005,-75.801054,,,0,,,,,
1680,7777,SUNVIEW / DES GRIVES,,,45.466903,-75.51438,,,0,,,,,
1681,7778,SUNVIEW / DES GRIVES,,,45.464917,-75.515152,,,0,,,,,
1682,7779,SUNVIEW / AD. 1672,,,45.463128,-75.514348,,,0,,,,,
1683,7780,SUNVIEW / DES PERDRIX,,,45.460943,-75.51221,,,0,,,,,
1684,1973,JEANNE D'ARC / DES ÉPINETTES,,,45.459147,-75.509428,,,0,,,,,
1685,7766,JEANNE D'ARC / SAPINIER,,,45.457375,-75.505757,,,0,,,,,
1686,7767,INNES / JEANNE D'ARC,,,45.455515,-75.505733,,,0,,,,,
1687,0864,INNES / AD. 3927,,,45.45433,-75.508395,,,0,,,,,
1688,1751,INNES / FRANK BENDER,,,45.452742,-75.512138,,,0,,,,,
1689,1710,VISENEAU / MARKWELL,,,45.452757,-75.515548,,,0,,,,,
169,5242,CARLING / SCRIVENS,,,45.355998,-75.8032,,,0,,,,,
1691,1756,VISENEAU / BARRINGTON,,,45.455363,-75.519418,,,0,,,,,
1692,7759,VISENEAU / VIGNEAULT,,,45.453703,-75.522852,,,0,,,,,
1693,2477,MEADOWGLEN / BOYER,,,45.452128,-75.524807,,,0,,,,,
1694,7754,MEADOWGLEN / TEAKDALE,,,45.451358,-75.52607,,,0,,,,,
1695,7755,MEADOWGLEN / ASPENVIEW,,,45.449697,-75.527477,,,0,,,,,
1696,1401,MEADOWGLEN / PAGÉ,,,45.449022,-75.529687,,,0,,,,,
1697,6609,MEADOWGLEN / SUMMERFIELDS,,,45.44825,-75.531427,,,0,,,,,
1698,7756,MEADOWGLEN / SUMMERFIELDS,,,45.447337,-75.533223,,,0,,,,,
1699,1738,MEADOWGLEN / ORLÉANS,,,45.44686,-75.53486,,,0,,,,,
170,5244,CARLING / KEMPSTER,,,45.355046,-75.80537,,,0,,,,,
1700,7715,MEADOWGLEN / WINDFLOWER,,,45.446398,-75.536593,,,0,,,,,
1701,7861,MEADOWGLEN / MONTEREAU,,,45.445477,-75.54059,,,0,,,,,
1702,7717,MEADOWGLEN / WILLOWBARK,,,45.447463,-75.542498,,,0,,,,,
1703,7718,MEADOWGLEN / MEADOWFIELD,,,45.449673,-75.543197,,,0,,,,,
1704,7719,MEADOWGLEN / FOREST VALLEY,,,45.452558,-75.540653,,,0,,,,,
1705,0823,FOREST VALLEY / RIDGELEA,,,45.454577,-75.541608,,,0,,,,,
1706,7720,FOREST VALLEY / RIVERMILL,,,45.45762,-75.541782,,,0,,,,,
1707,7721,FOREST VALLEY / AD. 1401,,,45.458455,-75.545803,,,0,,,,,
1708,1737,YOUVILLE / ST JOSEPH,,,45.461857,-75.549268,,,0,,,,,
1709,7722,YOUVILLE / AD. 1420,,,45.463788,-75.550302,,,0,,,,,
1710,7723,YOUVILLE / AD. 1449,,,45.465092,-75.54849,,,0,,,,,
1711,7724,YOUVILLE / JEANNE D'ARC,,,45.465353,-75.543673,,,0,,,,,
1712,8170,FORTUNE / ST MORITZ,,,45.47222,-75.545708,,,0,,,,,
1713,7938,FORTUNE / ST AGATHE,,,45.471306,-75.545175,,,0,,,,,
1714,7939,FORTUNE / ST-JÉRÔME,,,45.471648,-75.541655,,,0,,,,,
1715,8171,FORTUNE / ST DUNSTANS,,,45.472927,-75.539343,,,0,,,,,
1716,7940,FORTUNE / ST JOVITE,,,45.47408,-75.538302,,,0,,,,,
1717,7941,FORTUNE / ORLÉANS,,,45.47574,-75.535758,,,0,,,,,
1718,1753,ORLÉANS / LUMBERMAN,,,45.471132,-75.532635,,,0,,,,,
1719,7796,ORLÉANS / ST JOSEPH,,,45.469263,-75.530895,,,0,,,,,
172,6413,CARLING / BAYSHORE,,,45.353472,-75.808907,,,0,,,,,
1720,9060,RENAUD / SADDLERIDGE,,,45.429155,-75.51862,,,0,,,,,
1721,5931,JOSHUA / KEITH,,,45.425792,-75.521405,,,0,,,,,
1723,5928,SADDLERIDGE / ROLLING MEADOW,,,45.428208,-75.518178,,,0,,,,,
1724,9061,RENAUD / SADDLERIDGE,,,45.429138,-75.518322,,,0,,,,,
1725,3617,ORLÉANS / NAVAN,,,45.434272,-75.531165,,,0,,,,,
1726,3618,ORLÉANS / BLUE WILLOW,,,45.435495,-75.529448,,,0,,,,,
1729,2646,INNES / DU CLAIRVAUX PATHWAY,,,45.442187,-75.538595,,,0,,,,,
173,5308,CARLING / ANDREW HAYDON PARK,,,45.351302,-75.813968,,,0,,,,,
1735,7697,BLAIR / INNES,,,45.419878,-75.595903,,,0,,,,,
1736,7698,BLAIR / INNES,,,45.420928,-75.596452,,,0,,,,,
1737,7699,BLAIR / BEAVERPOND,,,45.422955,-75.597723,,,0,,,,,
1738,8989,BLAIR / AD. 1471,,,45.425513,-75.599035,,,0,,,,,
1739,7701,BLAIR / MEADOWBROOK,,,45.426595,-75.599853,,,0,,,,,
174,5309,CARLING / ACRES SIDE,,,45.349413,-75.818473,,,0,,,,,
1740,8504,BLAIR / BALLARD,,,45.425458,-75.59905,,,0,,,,,
1741,1089,INNES / DU CLAIRVAUX PATHWAY,,,45.442402,-75.537547,,,0,,,,,
1742,3305,ORLÉANS / LONGLEAF,,,45.43714,-75.527095,,,0,,,,,
1743,3306,ORLÉANS / DES GRAND-CHAMPS,,,45.435813,-75.529003,,,0,,,,,
1744,3307,ORLÉANS / DES GRAND-CHAMPS,,,45.434597,-75.530847,,,0,,,,,
1745,5936,PAGÉ / NAVAN,,,45.430187,-75.517512,,,0,,,,,
1748,2627,CENTRUM / AD. 230,,,45.480493,-75.510295,,,0,,,,,
1749,7845,PRESTONE / CENTRUM,,,45.480565,-75.508992,,,0,,,,,
1750,2739,PRESTONE / KENNEDY,,,45.47977,-75.50416,,,0,,,,,
1751,2738,PRESTONE / MOUNTAINSIDE N.,,,45.480135,-75.502348,,,0,,,,,
1752,2737,PRESTONE / MOUNTAINSIDE S.,,,45.4788,-75.500678,,,0,,,,,
1753,5647,PRESTONE / TOMPKINS,,,45.476957,-75.501252,,,0,,,,,
1754,2733,PRESTONE / DEAVY,,,45.47501,-75.501553,,,0,,,,,
1755,2732,PRESTONE / AMIENS,,,45.473397,-75.500847,,,0,,,,,
1756,5630,AMIENS / PRESTWICK,,,45.472823,-75.499478,,,0,,,,,
1757,2719,PRESTWICK / ROXDALE,,,45.471497,-75.499018,,,0,,,,,
1758,2718,PRESTWICK / GALLOWAY,,,45.46978,-75.49804,,,0,,,,,
1760,8176,PRESTWICK / DES ÉPINETTES,,,45.465577,-75.495895,,,0,,,,,
1761,5772,PRESTWICK / LAMOUREUX,,,45.463938,-75.494178,,,0,,,,,
1762,7824,PRESTWICK / SUMMERLANDS,,,45.46289,-75.492803,,,0,,,,,
1763,7825,PRESTWICK / DES PRAIRIES,,,45.461357,-75.493328,,,0,,,,,
1764,4079,DU GRAND BOIS / ARBRES,,,45.460132,-75.494497,,,0,,,,,
1765,7826,DU GRAND BOIS / AD. 246,,,45.460005,-75.49793,,,0,,,,,
1766,0793,INNES / DU GRAND BOIS,,,45.457327,-75.49909,,,0,,,,,
1767,3563,INNES / WILDFLOWER,,,45.456747,-75.501347,,,0,,,,,
1768,2740,ST GEORGES / SCHOUTEN,,,45.463923,-75.501863,,,0,,,,,
1769,2713,ST GEORGES / SCHOUTEN,,,45.46684,-75.502745,,,0,,,,,
177,0908,CARLING / SUNNY BRAE,,,45.352398,-75.834862,,,0,,,,,
1770,8247,ST GEORGES / GALLOWAY,,,45.467992,-75.501832,,,0,,,,,
1771,2712,GLENEAGLES / ST GEORGES,,,45.469502,-75.50292,,,0,,,,,
1772,2711,GLENEAGLES / BLACKHEATH,,,45.468802,-75.50544,,,0,,,,,
1773,2710,GLENEAGLES / DUFORD,,,45.468333,-75.507085,,,0,,,,,
1774,2709,DUFORD / LACROIX,,,45.469763,-75.508022,,,0,,,,,
1775,8110,DUFORD / AMIENS,,,45.471338,-75.508452,,,0,,,,,
1777,4135,FLANNERY / BROOKFIELD,,,45.37311,-75.683427,,,0,,,,,
1778,4134,FLANNERY / RAMSGATE,,,45.372037,-75.682393,,,0,,,,,
1779,8914,FLANNERY / SPRINGLAND,,,45.370392,-75.68187,,,0,,,,,
178,5321,CARLING / ULLSWATER,,,45.35243,-75.840362,,,0,,,,,
1780,4132,SPRINGLAND / HOBSON,,,45.369651,-75.685198,,,0,,,,,
1781,2449,SPRINGLAND / RIDGEWOOD,,,45.367975,-75.685883,,,0,,,,,
1782,8264,SPRINGLAND / NICHOLSON,,,45.366043,-75.685128,,,0,,,,,
1783,4130,SPRINGLAND / MOONEY'S BAY,,,45.364828,-75.68477,,,0,,,,,
1784,8483,SPRINGLAND / WALKLEY,,,45.36254,-75.68442,,,0,,,,,
1785,4142,WALKLEY / OTTERSON,,,45.361975,-75.68353,,,0,,,,,
1786,8484,WALKLEY / AD. 800,,,45.363192,-75.680375,,,0,,,,,
1788,1925,WALKLEY / THORNDALE,,,45.365718,-75.674693,,,0,,,,,
1789,5669,WALKLEY / AVONCOURT,,,45.366307,-75.673103,,,0,,,,,
179,0909,CARLING / JAMES CUMMINGS,,,45.352597,-75.843008,,,0,,,,,
1790,8905,WALKLEY / SOUTHMORE,,,45.36714,-75.671022,,,0,,,,,
1791,3036,WALKLEY C,,,45.368793,-75.666905,,,0,3036_stn,,,,C
1792,3038,SOUTH KEYS D,,,45.353415,-75.655135,,,0,3038_stn,,,,D
18,3015,QUEENSWAY 1A,,,45.359035,-75.77184,,,0,3015_stn,,,,1A
1806,1500,MCCARTHY / PROVOST,,,45.363032,-75.676115,,,0,,,,,
1807,3036,WALKLEY D,,,45.368793,-75.667413,,,0,3036_stn,,,,D
1808,8487,WALKLEY / SOUTHMORE,,,45.367292,-75.6711,,,0,,,,,
1809,4140,WALKLEY / AVONCOURT,,,45.366457,-75.673152,,,0,,,,,
181,0910,CARLING / GRANDVIEW,,,45.35421,-75.848405,,,0,,,,,
1810,8489,WALKLEY / WEXFORD,,,45.365368,-75.675908,,,0,,,,,
1811,1595,WALKLEY / MCCARTHY,,,45.36451,-75.678102,,,0,,,,,
1812,8482,SPRINGLAND / WALTON,,,45.362317,-75.68427,,,0,,,,,
1813,4131,SPRINGLAND / MOONEY'S BAY,,,45.364955,-75.684675,,,0,,,,,
1814,8904,SPRINGLAND / NICHOLSON,,,45.366513,-75.685167,,,0,,,,,
1815,2412,SPRINGLAND / NORBERRY,,,45.367547,-75.685573,,,0,,,,,
1816,8903,SPRINGLAND / RIDGEWOOD,,,45.368532,-75.68585,,,0,,,,,
1817,4133,SPRINGLAND / NORBERRY,,,45.369987,-75.68287,,,0,,,,,
1818,1583,FLANNERY / SPRINGLAND,,,45.370567,-75.681727,,,0,,,,,
1819,4136,FLANNERY / RAMSGATE,,,45.371908,-75.682123,,,0,,,,,
1820,4137,FLANNERY / BROOKFIELD,,,45.373387,-75.683625,,,0,,,,,
1821,3034,BILLINGS BRIDGE 4D,,,45.384847,-75.676632,,,0,3034_stn,,,,4D
1822,8286,HERON / BANK,,,45.378728,-75.666857,,,0,,,,,
1823,3034,BILLINGS BRIDGE 3A,,,45.38495,-75.676807,,,0,3034_stn,,,,3A
1824,4083,HERON / BAYCREST,,,45.379538,-75.652385,,,0,,,,,
1825,8393,HERON / SANDALWOOD,,,45.379825,-75.648308,,,0,,,,,
1832,3038,SOUTH KEYS B,,,45.354052,-75.65554,,,0,3038_stn,,,,B
1833,1530,BRIDLE PATH / CROSSCUT,,,45.350372,-75.650597,,,0,,,,,
1834,1799,BRIDLE PATH / EQUUS,,,45.349355,-75.649993,,,0,,,,,
1835,4248,BRIDLE PATH / HUNTER'S POINT,,,45.348227,-75.648332,,,0,,,,,
1836,4249,BRIDLE PATH / TRAPPER'S,,,45.348838,-75.645383,,,0,,,,,
1837,4250,BRIDLE PATH / CAROUSEL,,,45.349315,-75.643873,,,0,,,,,
1838,4251,BRIDLE PATH / ALBION,,,45.350142,-75.641743,,,0,,,,,
1844,1971,BANK / ST-BERNARD,,,45.349752,-75.629227,,,0,,,,,
1845,4271,BANK / ROSEBELLA,,,45.348735,-75.627343,,,0,,,,,
1848,8876,QUEENSDALE / SAWMILL CREEK,,,45.349815,-75.61969,,,0,,,,,
1849,8877,QUEENSDALE / EIGHT,,,45.35069,-75.617678,,,0,,,,,
1850,4287,QUEENSDALE / AD. 1920,,,45.351603,-75.61543,,,0,,,,,
1851,8953,QUEENSDALE / CONROY,,,45.352757,-75.612537,,,0,,,,,
1856,4276,SIXTH / ST BERNARD,,,45.35216,-75.624117,,,0,,,,,
1858,6142,ATHANS / LEVADIA,,,45.353352,-75.627708,,,0,,,,,
1859,4801,ATHANS / BANK,,,45.351715,-75.63173,,,0,,,,,
1865,4255,BRIDLE PATH / CAROUSEL,,,45.349967,-75.642872,,,0,,,,,
1866,4254,BRIDLE PATH / CAROUSEL,,,45.349387,-75.643922,,,0,,,,,
1867,4253,BRIDLE PATH / SARATOGA,,,45.348838,-75.645995,,,0,,,,,
1868,4252,BRIDLE PATH / HUNTER'S POINT,,,45.348273,-75.648323,,,0,,,,,
1869,8743,BRIDLE PATH / EQUUS,,,45.349203,-75.649833,,,0,,,,,
1870,8382,BRIDLE PATH / PIMLICO,,,45.350428,-75.650565,,,0,,,,,
1874,2085,TAPIOLA / JOHNSTON,,,45.3637,-75.647267,,,0,,,,,
1875,5753,TAPIOLA / GREENBORO,,,45.362578,-75.645868,,,0,,,,,
1876,4230,TAPIOLA / GREENBORO,,,45.362348,-75.64454,,,0,,,,,
1877,4231,TAPIOLA / CRIMSON,,,45.363652,-75.641275,,,0,,,,,
1878,4232,TAPIOLA / WINGALE,,,45.364463,-75.639288,,,0,,,,,
1879,4233,TAPIOLA / SOMERO,,,45.365122,-75.637675,,,0,,,,,
1880,4234,TAPIOLA / RUSHFORD,,,45.366798,-75.637977,,,0,,,,,
1881,0385,JOHNSTON / PENNARD,,,45.36889,-75.633073,,,0,,,,,
1882,0386,JOHNSTON / ZAIDAN,,,45.36842,-75.631397,,,0,,,,,
1883,1312,JOHNSTON / ALLANFORD,,,45.369493,-75.628837,,,0,,,,,
1884,1310,JOHNSTON / ALLANFORD,,,45.372568,-75.626437,,,0,,,,,
1885,0413,CONROY / JOHNSTON,,,45.372895,-75.62426,,,0,,,,,
1886,0388,CONROY / FENTERRA,,,45.370955,-75.623163,,,0,,,,,
1888,0387,JOHNSTON / ZAIDAN,,,45.368515,-75.632477,,,0,,,,,
1889,4229,TAPIOLA / BRANDO,,,45.36664,-75.63792,,,0,,,,,
189,3397,TERMINAL / WALMART ENT.,,,45.41484,-75.649047,,,0,,,,,
1890,4228,TAPIOLA / SOMERO,,,45.365075,-75.637992,,,0,,,,,
1891,4227,TAPIOLA / RASTILA,,,45.364502,-75.639392,,,0,,,,,
1892,4226,TAPIOLA / WHITE CLOVER,,,45.363787,-75.641123,,,0,,,,,
1893,4225,TAPIOLA / GENTLE GATE,,,45.36246,-75.644398,,,0,,,,,
1894,4224,TAPIOLA / CELTIC,,,45.362905,-75.646265,,,0,,,,,
1895,2084,TAPIOLA / JOHNSTON,,,45.363675,-75.647243,,,0,,,,,
1899,8380,ALBION / MASSICOTTE,,,45.349983,-75.64083,,,0,,,,,
1900,4260,ALBION / BRAMPTON,,,45.348543,-75.639995,,,0,,,,,
1901,8873,ALBION / CINANNI,,,45.34771,-75.639533,,,0,,,,,
1902,4261,ALBION / WYLDEWOOD,,,45.346097,-75.638565,,,0,,,,,
1903,4262,ALBION / MCMAHON,,,45.345127,-75.638023,,,0,,,,,
1904,4263,ALBION / RIDGEDALE,,,45.343728,-75.637245,,,0,,,,,
1905,8874,QUEENSDALE / ALBION,,,45.34302,-75.636435,,,0,,,,,
1906,4282,QUEENSDALE / FIRST (1ST),,,45.344047,-75.633907,,,0,,,,,
1907,4283,QUEENSDALE / STOCKTON,,,45.344808,-75.632048,,,0,,,,,
1908,4284,QUEENSDALE / FENMORE,,,45.345867,-75.629473,,,0,,,,,
1909,8875,QUEENSDALE / BANK,,,45.346867,-75.627025,,,0,,,,,
191,8595,BELFAST / TRAINYARDS,,,45.414593,-75.641887,,,0,,,,,
1917,1798,BANK / LEITRIM,,,45.330393,-75.599607,,,0,,,,,
1918,1057,BANK / ROTARY,,,45.329335,-75.598978,,,0,,,,,
1920,1058,BANK / ANALDEA,,,45.326403,-75.59723,,,0,,,,,
1922,1063,BANK / AD. 4771,,,45.322135,-75.59479,,,0,,,,,
1929,0485,KELLY FARM / WHITE ALDER,,,45.318813,-75.608327,,,0,,,,,
1934,1069,BANK / AD. 4835,,,45.309372,-75.587217,,,0,,,,,
1935,0486,KELLY FARM / CRESTON VALLEY,,,45.31809,-75.606043,,,0,,,,,
1938,3287,FINDLAY CREEK / LONG POINT,,,45.31813,-75.599193,,,0,,,,,
1939,3299,FINDLAY CREEK / CEDAR CREEK,,,45.319402,-75.596222,,,0,,,,,
1940,3289,FINDLAY CREEK / BANK,,,45.32014,-75.594282,,,0,,,,,
1942,1062,BANK / AD. 4771,,,45.32192,-75.594497,,,0,,,,,
1944,1059,BANK / ANALDEA,,,45.327205,-75.597548,,,0,,,,,
1946,3575,BANK / LEITRIM,,,45.331473,-75.599902,,,0,,,,,
1955,8880,QUEENSDALE / MAVIS,,,45.34589,-75.629615,,,0,,,,,
1956,4281,QUEENSDALE / FIRST (1ST),,,45.34422,-75.633653,,,0,,,,,
1957,8881,QUEENSDALE / ALBION,,,45.343132,-75.636355,,,0,,,,,
1958,4265,ALBION / GOTH,,,45.345285,-75.638048,,,0,,,,,
1959,4264,ALBION / WYLDEWOOD,,,45.346303,-75.638612,,,0,,,,,
196,8894,ST-LAURENT / SHORE,,,45.412942,-75.630887,,,0,,,,,
1960,8882,ALBION / D'AOUST,,,45.347463,-75.63928,,,0,,,,,
1961,8951,ALBION / BRAMPTON,,,45.34918,-75.640242,,,0,,,,,
1965,8486,MCCARTHY / PROVOST,,,45.363723,-75.676617,,,0,,,,,
1966,4151,MCCARTHY / FIELDING,,,45.36211,-75.675773,,,0,,,,,
1967,4152,MCCARTHY / SOUTHMORE,,,45.360068,-75.674527,,,0,,,,,
1968,8473,PLANTE / OWL,,,45.354552,-75.671458,,,0,,,,,
1969,4154,PLANTE / IMPALA,,,45.356062,-75.670123,,,0,,,,,
197,1091,ST-LAURENT / TREMBLAY,,,45.41825,-75.633843,,,0,,,,,
1970,4155,PLANTE / CONDOR,,,45.357445,-75.667183,,,0,,,,,
1971,8474,PLANTE / AD. 1030,,,45.357207,-75.663853,,,0,,,,,
1972,4158,PLANTE / MINA,,,45.355872,-75.661563,,,0,,,,,
1973,4159,PLANTE / BOURBON,,,45.354672,-75.660403,,,0,,,,,
1974,8475,PLANTE / CAHILL,,,45.353742,-75.659505,,,0,,,,,
1975,4163,PLANTE / SPARROW,,,45.351732,-75.658027,,,0,,,,,
1976,4164,PLANTE / WAXWING,,,45.350222,-75.660483,,,0,,,,,
1977,4165,PLANTE / MCCARTHY,,,45.349442,-75.662493,,,0,,,,,
1978,8998,MCCARTHY / CAHILL,,,45.350538,-75.664227,,,0,,,,,
1979,8518,MCCARTHY / PIGEON,,,45.350865,-75.666578,,,0,,,,,
1980,4187,MCCARTHY / PAUL ANKA,,,45.35135,-75.669868,,,0,,,,,
1981,8119,PAUL ANKA / MCCARTHY,,,45.351603,-75.67211,,,0,,,,,
1982,4188,PAUL ANKA / UPLANDS,,,45.349427,-75.674662,,,0,,,,,
1983,8450,UPLANDS / AD. 3344,,,45.347487,-75.672627,,,0,,,,,
1984,6140,UPLANDS / BENNETT,,,45.34678,-75.671022,,,0,,,,,
1985,6141,UPLANDS / LILLICO,,,45.346542,-75.667827,,,0,,,,,
1986,1566,UPLANDS / HUNT CLUB,,,45.345588,-75.66638,,,0,,,,,
1987,1598,UPLANDS / CAHILL,,,45.345532,-75.666317,,,0,,,,,
1988,4175,UPLANDS / CAHILL,,,45.346398,-75.66735,,,0,,,,,
1989,4174,UPLANDS / BENNETT,,,45.34674,-75.670718,,,0,,,,,
1990,4173,UPLANDS / AD. 3344,,,45.34767,-75.672785,,,0,,,,,
1991,8477,UPLANDS / PAUL ANKA,,,45.349108,-75.67463,,,0,,,,,
1992,4189,PAUL ANKA / MCCARTHY,,,45.350983,-75.672595,,,0,,,,,
1993,8478,PAUL ANKA / MCCARTHY,,,45.351732,-75.671792,,,0,,,,,
1994,4186,MCCARTHY / TWYFORD,,,45.351167,-75.669288,,,0,,,,,
1995,8480,MCCARTHY / PIGEON,,,45.350753,-75.666428,,,0,,,,,
1996,8984,MCCARTHY / CAHILL,,,45.350507,-75.664663,,,0,,,,,
1997,8444,PLANTE / MCCARTHY,,,45.349633,-75.661692,,,0,,,,,
1998,4162,PLANTE / SPARROW,,,45.351517,-75.658003,,,0,,,,,
1999,4161,PLANTE / CAHILL,,,45.353868,-75.659537,,,0,,,,,
200,8538,ST-LAURENT / TREMBLAY,,,45.418362,-75.634273,,,0,,,,,
2000,4160,PLANTE / BOURBON,,,45.354528,-75.660165,,,0,,,,,
2001,8445,PLANTE / MINA,,,45.3558,-75.661382,,,0,,,,,
2002,4157,PLANTE / AD. 1031,,,45.35727,-75.663797,,,0,,,,,
2003,4156,PLANTE / CONDOR,,,45.357445,-75.667428,,,0,,,,,
2004,8446,PLANTE / IMPALA,,,45.356078,-75.670195,,,0,,,,,
2005,4153,PLANTE / IMPALA,,,45.354703,-75.671188,,,0,,,,,
2006,8447,PLANTE / MCCARTHY,,,45.354623,-75.672412,,,0,,,,,
2007,8927,MCCARTHY / SOUTHMORE,,,45.360107,-75.67447,,,0,,,,,
2009,8466,UPLANDS / HUNT CLUB,,,45.343768,-75.665275,,,0,,,,,
201,7713,ST-LAURENT / OC TRANSPO,,,45.41298,-75.631125,,,0,,,,,
2010,4176,UPLANDS / DOWPATRICK,,,45.342362,-75.66448,,,0,,,,,
2012,4213,UPLANDS / RESEARCH,,,45.331092,-75.657782,,,0,,,,,
2023,4202,TYLEE / DE NIVERVILLE,,,45.336385,-75.669598,,,0,,,,,
2024,4201,TYLEE / CURTIS,,,45.33679,-75.668668,,,0,,,,,
2025,4200,CURTIS / SAMPSON,,,45.337998,-75.66944,,,0,,,,,
2026,4199,CURTIS / DE NIVERVILLE,,,45.337823,-75.671688,,,0,,,,,
2027,8372,DE NIVERVILLE / MCGILL,,,45.337632,-75.674757,,,0,,,,,
2028,4198,DE NIVERVILLE / AD. 225,,,45.336233,-75.678452,,,0,,,,,
2029,8373,DE NIVERVILLE / PAUL BENOIT,,,45.33505,-75.681328,,,0,,,,,
2030,7191,LAMIRA / ROONEY'S,,,45.384545,-75.670822,,,0,,,,,
2031,7190,KILBORN / UTAH,,,45.386095,-75.669472,,,0,,,,,
2032,8224,KILBORN / BEAVER,,,45.386247,-75.66735,,,0,,,,,
2033,7189,KILBORN / LILAC,,,45.386388,-75.665235,,,0,,,,,
2034,8225,KILBORN / ALTA VISTA,,,45.386572,-75.662843,,,0,,,,,
2035,8307,KILBORN / BRAESIDE,,,45.386747,-75.660308,,,0,,,,,
2036,7211,KILBORN / WEBSTER,,,45.386977,-75.656875,,,0,,,,,
2037,7212,KILBORN / PROSPECT,,,45.387128,-75.65469,,,0,,,,,
2038,8415,KILBORN / FEATHERSTON,,,45.387395,-75.65124,,,0,,,,,
2039,7216,KILBORN / PLAYFAIR,,,45.387502,-75.649388,,,0,,,,,
204,8582,BELFAST / AD. 805,,,45.413921,-75.639794,,,0,,,,,
2040,8416,KILBORN / VIRGINIA,,,45.387898,-75.643882,,,0,,,,,
2041,7228,KILBORN / DELMAR,,,45.388177,-75.639923,,,0,,,,,
2042,8911,KILBORN / FEATHERSTON,,,45.388377,-75.637618,,,0,,,,,
2043,8331,KILBORN / HAIG,,,45.38929,-75.635448,,,0,,,,,
2044,7277,CANTERBURY / HARDING,,,45.38906,-75.631977,,,0,,,,,
2045,7275,CANTERBURY / AD. 860,,,45.389123,-75.62902,,,0,,,,,
2046,8340,CANTERBURY / HALIFAX,,,45.389345,-75.626405,,,0,,,,,
2047,5803,HALIFAX / AD. 2215,,,45.388837,-75.62375,,,0,,,,,
2048,5804,HALIFAX / DAKOTA,,,45.388145,-75.621732,,,0,,,,,
2049,8345,CANTERBURY / PLESSER,,,45.389338,-75.627112,,,0,,,,,
2050,7276,CANTERBURY / AD. 860,,,45.389218,-75.62925,,,0,,,,,
2051,7278,CANTERBURY / ARCH,,,45.389218,-75.631888,,,0,,,,,
2052,7279,CANTERBURY / URBANDALE,,,45.389178,-75.634225,,,0,,,,,
2053,8333,KILBORN / HAIG,,,45.389448,-75.635497,,,0,,,,,
2054,7230,KILBORN / FEATHERSTON,,,45.388415,-75.638398,,,0,,,,,
2055,7229,KILBORN / DELMAR,,,45.388288,-75.64032,,,0,,,,,
2056,8418,KILBORN / BEAUMONT,,,45.388067,-75.643412,,,0,,,,,
2057,7227,KILBORN / VIRGINIA,,,45.387923,-75.645478,,,0,,,,,
2059,7215,KILBORN / PLAYFAIR,,,45.387628,-75.649492,,,0,,,,,
206,3396,TERMINAL / TRAINYARDS,,,45.414897,-75.644732,,,0,,,,,
2060,7214,KILBORN / ROSEGLEN,,,45.38747,-75.651883,,,0,,,,,
2061,8200,KILBORN / PROSPECT,,,45.38728,-75.654682,,,0,,,,,
2062,7213,KILBORN / WEBSTER,,,45.387112,-75.65713,,,0,,,,,
2063,8201,KILBORN / BRAESIDE,,,45.386873,-75.660627,,,0,,,,,
2064,8937,KILBORN / ALTA VISTA,,,45.38673,-75.662565,,,0,,,,,
2066,7188,KILBORN / LILAC,,,45.386508,-75.665458,,,0,,,,,
2067,8203,KILBORN / BLOSSOM,,,45.38619,-75.669638,,,0,,,,,
2068,7192,LAMIRA / ROONEY'S,,,45.385205,-75.670918,,,0,,,,,
2069,3329,PLEASANT PARK / ARCH,,,45.394328,-75.631745,,,0,,,,,
207,3398,TERMINAL / WALMART ENT.,,,45.41488,-75.649173,,,0,,,,,
2070,7269,PLEASANT PARK / CAMROSE,,,45.394225,-75.633192,,,0,,,,,
2071,8337,PLEASANT PARK / HAIG,,,45.39401,-75.636355,,,0,,,,,
2072,2327,PLEASANT PARK / CABOT,,,45.39266,-75.671697,,,0,,,,,
2073,3033,PLEASANT PARK 3A,,,45.392675,-75.669598,,,0,3033_stn,,,,3A
2074,8242,PLEASANT PARK / CAVENDISH,,,45.392827,-75.665092,,,0,,,,,
2075,7173,PLEASANT PARK / ALTA VISTA,,,45.392993,-75.662835,,,0,,,,,
2076,8243,PLEASANT PARK / AD. 328,,,45.393232,-75.65922,,,0,,,,,
2077,7249,PLEASANT PARK / FAIRBANKS,,,45.393487,-75.655698,,,0,,,,,
2078,7250,PLEASANT PARK / AD. 452,,,45.393693,-75.652862,,,0,,,,,
2079,8244,PLEASANT PARK / AD. 504,,,45.3939,-75.65008,,,0,,,,,
2080,7255,PLEASANT PARK / LYNDA,,,45.394082,-75.647243,,,0,,,,,
2081,7256,PLEASANT PARK / NORWAY,,,45.394242,-75.645097,,,0,,,,,
2082,8335,PLEASANT PARK / DORVAL,,,45.393645,-75.639947,,,0,,,,,
2083,7268,PLEASANT PARK / HAIG,,,45.393883,-75.636673,,,0,,,,,
2084,8336,PLEASANT PARK / CAMROSE,,,45.394138,-75.633493,,,0,,,,,
2101,8338,PLEASANT PARK / DORVAL,,,45.393765,-75.639995,,,0,,,,,
2102,7254,PLEASANT PARK / NORWAY,,,45.394377,-75.645088,,,0,,,,,
2103,7253,PLEASANT PARK / LYNDA,,,45.39417,-75.64807,,,0,,,,,
2104,7252,PLEASANT PARK / AD. 501,,,45.39401,-75.65031,,,0,,,,,
2105,8238,PLEASANT PARK / AD. 433,,,45.393772,-75.653823,,,0,,,,,
2106,7251,PLEASANT PARK / FAIRBANKS,,,45.393565,-75.656597,,,0,,,,,
2107,7248,PLEASANT PARK / AD. 327,,,45.39339,-75.659227,,,0,,,,,
2108,8239,PLEASANT PARK / ALTA VISTA,,,45.39316,-75.662358,,,0,,,,,
2109,8240,PLEASANT PARK / CAVENDISH,,,45.39297,-75.665068,,,0,,,,,
2110,3033,PLEASANT PARK 4A,,,45.39285,-75.669352,,,0,3033_stn,,,,4A
2111,8216,PLEASANT PARK / CABOT,,,45.392803,-75.671665,,,0,,,,,
2112,8555,RIVERSIDE / PLEASANT PARK,,,45.39312,-75.67242,,,0,,,,,
2113,0475,DEN HAAG / MONTRÉAL,,,45.443657,-75.635322,,,0,,,,,
2114,0474,DEN HAAG / CARWOOD,,,45.442155,-75.634313,,,0,,,,,
2115,0473,DEN HAAG / BOREALIS,,,45.440772,-75.633478,,,0,,,,,
2116,0472,DEN HAAG / BOREALIS,,,45.439643,-75.631253,,,0,,,,,
2119,7428,KIRKWOOD / CARLING N.,,,45.385317,-75.740647,,,0,,,,,
2120,7427,KIRKWOOD / DEVONSHIRE,,,45.387668,-75.742133,,,0,,,,,
2121,4843,KIRKWOOD / CLARE,,,45.389098,-75.743,,,0,,,,,
2122,7423,KIRKWOOD / IONA,,,45.390577,-75.743913,,,0,,,,,
2123,4844,KIRKWOOD / GEOFFREY,,,45.392255,-75.744898,,,0,,,,,
2124,0345,KIRKWOOD / BYRON,,,45.393628,-75.745702,,,0,,,,,
2125,2356,RICHMOND / MCRAE,,,45.394408,-75.748635,,,0,,,,,
2126,4841,MCRAE / SCOTT,,,45.396203,-75.750287,,,0,,,,,
2127,3012,WESTBORO A,,,45.395765,-75.753281,,,0,3012_stn,,,,A
2128,4960,CARLINGWOOD - LOBLAWS,,,45.372355,-75.768263,,,0,,,,,
2129,8046,CARLINGWOOD / CARLING,,,45.371115,-75.769187,,,0,,,,,
2130,6481,CARLING / WOODROFFE,,,45.370042,-75.771117,,,0,,,,,
2131,6407,CARLING / WOODLAND,,,45.36885,-75.77397,,,0,,,,,
2132,6406,CARLING / RICHARDSON,,,45.367737,-75.776458,,,0,,,,,
2133,6405,CARLING / WENTWORTH,,,45.36714,-75.777848,,,0,,,,,
2134,6404,CARLING / EDGEWORTH,,,45.366338,-75.779748,,,0,,,,,
2136,4558,IRIS / ADIRONDACK,,,45.356357,-75.768375,,,0,,,,,
2137,2939,IRIS / WOODROFFE,,,45.357668,-75.765943,,,0,,,,,
2138,4542,IRIS / FIELD,,,45.359098,-75.762613,,,0,,,,,
2139,2940,IRIS / NAVAHO,,,45.359075,-75.758798,,,0,,,,,
2140,4546,NAVAHO / LAXTON,,,45.360614,-75.757182,,,0,,,,,
2141,4547,NAVAHO / ALBANY,,,45.361363,-75.754945,,,0,,,,,
2142,2941,NAVAHO / AGINCOURT,,,45.362277,-75.751662,,,0,,,,,
2143,4552,NAVAHO / WOODSIDE,,,45.362675,-75.750272,,,0,,,,,
2144,4553,NAVAHO / ERINDALE,,,45.36304,-75.748802,,,0,,,,,
2147,2994,MERIVALE / BASELINE,,,45.365877,-75.73088,,,0,,,,,
2148,1251,CENTRAL PARK / MERIVALE,,,45.367722,-75.732168,,,0,,,,,
2149,6516,CENTRAL PARK / MANHATTAN,,,45.367228,-75.733607,,,0,,,,,
2150,6517,CENTRAL PARK / SCOUT,,,45.36664,-75.735458,,,0,,,,,
2151,6518,CENTRAL PARK / STATEN,,,45.367387,-75.737658,,,0,,,,,
2152,6519,CENTRAL PARK / WHITESTONE,,,45.368722,-75.736587,,,0,,,,,
2153,6520,CENTRAL PARK / CRYSTAL PARK,,,45.369398,-75.735123,,,0,,,,,
2154,6521,CENTRAL PARK / CRYSTAL PARK,,,45.370113,-75.733312,,,0,,,,,
2155,4802,MERIVALE / AD. 1220,,,45.372045,-75.732232,,,0,,,,,
2156,4800,MERIVALE / KINGSTON,,,45.373745,-75.732517,,,0,,,,,
2157,8097,MERIVALE / SUMMERVILLE,,,45.375247,-75.732835,,,0,,,,,
2158,7437,MERIVALE / KIRKWOOD,,,45.377044,-75.733158,,,0,,,,,
2159,4819,MERIVALE / SHILLINGTON,,,45.380139,-75.733185,,,0,,,,,
216,3255,TRIM / TEMPO PATHWAY,,,45.481711,-75.47115,,,0,,,,,
2161,7435,MERIVALE / ANNA,,,45.382248,-75.732925,,,0,,,,,
2162,8076,MERIVALE / CRERAR,,,45.384458,-75.732438,,,0,,,,,
2164,4884,CHURCHILL / WORKMAN,,,45.395313,-75.755907,,,0,,,,,
2165,7381,CHURCHILL / LANARK,,,45.396633,-75.756725,,,0,,,,,
2166,7382,LANARK / BEECHGROVE,,,45.397745,-75.754277,,,0,,,,,
2167,7383,LANARK / AD. 369,,,45.398365,-75.753037,,,0,,,,,
2168,4885,CLEARVIEW / ELLENDALE,,,45.399733,-75.750875,,,0,,,,,
2169,7387,CLEARVIEW / ISLAND PARK,,,45.401513,-75.749517,,,0,,,,,
2170,7388,CLEARVIEW / PATRICIA N,,,45.402823,-75.748483,,,0,,,,,
2171,7395,KEYWORTH / CLEARVIEW,,,45.403222,-75.746537,,,0,,,,,
2172,7394,KEYWORTH / SUNNYMEDE,,,45.401553,-75.745575,,,0,,,,,
2173,7393,KEYWORTH / AMANDA,,,45.399955,-75.744628,,,0,,,,,
2174,4890,AMANDA / CARLETON,,,45.400598,-75.742762,,,0,,,,,
2175,7373,SCOTT / WESTERN,,,45.400742,-75.741243,,,0,,,,,
2176,7372,SCOTT / ROSS,,,45.401577,-75.739375,,,0,,,,,
2178,1029,MERIVALE / CARLING,,,45.386222,-75.732272,,,0,,,,,
218,3256,SPRINGRIDGE / TRIM,,,45.48101,-75.468373,,,0,,,,,
2180,7432,MERIVALE / COLDREY,,,45.383484,-75.732777,,,0,,,,,
2181,7433,MERIVALE / LAPERRIERE,,,45.381413,-75.733188,,,0,,,,,
2182,7434,MERIVALE / SHILLINGTON,,,45.379682,-75.733359,,,0,,,,,
2183,4831,MERIVALE / KIRKWOOD,,,45.377368,-75.733328,,,0,,,,,
2184,4834,MERIVALE / MAYVIEW,,,45.374645,-75.732953,,,0,,,,,
2185,4804,MERIVALE / CALDWELL,,,45.373157,-75.732628,,,0,,,,,
2186,5717,MERIVALE / AD. 1220,,,45.371917,-75.732375,,,0,,,,,
2187,6510,CENTRAL PARK / CELEBRATION,,,45.37016,-75.733328,,,0,,,,,
2188,6511,CENTRAL PARK / BLOOMINGDALE,,,45.369533,-75.734997,,,0,,,,,
2189,6512,CENTRAL PARK / WHITESTONE,,,45.368722,-75.736762,,,0,,,,,
219,3257,SPRINGRIDGE / PEPPERGRASS,,,45.48186,-75.466895,,,0,,,,,
2190,6513,CENTRAL PARK / STATEN,,,45.36765,-75.737795,,,0,,,,,
2191,6514,CENTRAL PARK / SCOUT,,,45.366617,-75.735298,,,0,,,,,
2192,6515,CENTRAL PARK / MANHATTAN,,,45.36734,-75.7332,,,0,,,,,
2193,2491,MERIVALE / CENTRAL PARK,,,45.367418,-75.73169,,,0,,,,,
2194,2997,MERIVALE / BASELINE,,,45.365845,-75.731238,,,0,,,,,
2197,4551,NAVAHO / ERINDALE,,,45.363095,-75.748945,,,0,,,,,
2198,4550,NAVAHO / WOODSIDE,,,45.362825,-75.749913,,,0,,,,,
2199,2946,NAVAHO / AGINCOURT,,,45.362302,-75.751782,,,0,,,,,
220,3258,SPRINGRIDGE / CAPRIHANI,,,45.482003,-75.464432,,,0,,,,,
2200,4549,NAVAHO / ALBANY,,,45.361323,-75.755293,,,0,,,,,
2201,4548,NAVAHO / SHERMAN,,,45.360577,-75.757345,,,0,,,,,
2202,2947,NAVAHO / IRIS,,,45.359408,-75.758402,,,0,,,,,
2203,4545,IRIS / WHITMORE,,,45.359495,-75.759808,,,0,,,,,
2204,4544,IRIS / FIELD,,,45.359432,-75.761668,,,0,,,,,
2205,4543,IRIS / BEDBROOKE,,,45.358637,-75.764258,,,0,,,,,
2207,4557,IRIS / ADIRONDACK,,,45.356523,-75.768105,,,0,,,,,
221,3259,SPRINGRIDGE / PEPPERGRASS,,,45.479762,-75.464113,,,0,,,,,
2211,4984,CARLING / FOX,,,45.36776,-75.775982,,,0,,,,,
2212,4983,CARLING / WOODROFFE,,,45.368833,-75.77343,,,0,,,,,
2213,4067,CARLING / FAIRLAWN,,,45.370303,-75.769933,,,0,,,,,
2215,4893,MCRAE / SCOTT,,,45.396544,-75.75065,,,0,,,,,
2216,7377,MCRAE / RICHMOND,,,45.394558,-75.74904,,,0,,,,,
2217,2389,RICHMOND / KIRKWOOD,,,45.39506,-75.746957,,,0,,,,,
2218,4853,KIRKWOOD / BYRON,,,45.392835,-75.745337,,,0,,,,,
2219,4854,KIRKWOOD / GEOFFREY,,,45.392023,-75.744867,,,0,,,,,
222,3297,SPRINGRIDGE / TRIM,,,45.478513,-75.464822,,,0,,,,,
2220,7424,KIRKWOOD / IONA,,,45.390745,-75.744143,,,0,,,,,
2221,4855,KIRKWOOD / CLARE,,,45.388503,-75.742753,,,0,,,,,
2222,7425,KIRKWOOD / MACY,,,45.387152,-75.741943,,,0,,,,,
2223,7426,KIRKWOOD / CARLING,,,45.38534,-75.740878,,,0,,,,,
2224,5898,KIRKWOOD / CARLING,,,45.384338,-75.740227,,,0,,,,,
2226,7370,SCOTT / SIR FREDERICK BANTING,,,45.401815,-75.738987,,,0,,,,,
2227,7371,SCOTT / NORTHWESTERN,,,45.400972,-75.740965,,,0,,,,,
2228,7392,NORTHWESTERN / AMANDA,,,45.401655,-75.741752,,,0,,,,,
2229,7391,CLEARVIEW / CARLETON,,,45.404,-75.744907,,,0,,,,,
223,5907,PORTOBELLO / TRIM,,,45.477632,-75.465758,,,0,,,,,
2230,4887,CLEARVIEW / KEYWORTH,,,45.403523,-75.746528,,,0,,,,,
2231,7390,CLEARVIEW / PATRICIA N,,,45.402903,-75.748667,,,0,,,,,
2232,7389,CLEARVIEW / ISLAND PARK,,,45.40199,-75.749635,,,0,,,,,
2233,4886,CLEARVIEW / LATCHFORD,,,45.40032,-75.750772,,,0,,,,,
2234,7386,ELLENDALE / CLEARVIEW,,,45.399868,-75.751107,,,0,,,,,
2235,7385,LANARK / CHAMPLAIN,,,45.398637,-75.752648,,,0,,,,,
2236,7384,LANARK / BEECHGROVE,,,45.397857,-75.754182,,,0,,,,,
2237,4883,LANARK / CHURCHILL,,,45.397047,-75.756868,,,0,,,,,
2238,5615,CHURCHILL / TRANSIT BRIDGE,,,45.394965,-75.755637,,,0,,,,,
2239,3050,BAYSHORE C,,,45.345807,-75.811382,,,0,3050_stn,,,,C
224,5906,PORTOBELLO / AD. 1538,,,45.476535,-75.46784,,,0,,,,,
2240,6435,RICHMOND / NANAIMO,,,45.342096,-75.808072,,,0,,,,,
2241,1143,RICHMOND / JOHN SUTHERLAND,,,45.337402,-75.811172,,,0,,,,,
2242,4051,MORRISON / BASELINE,,,45.338872,-75.794475,,,0,,,,,
2243,5259,MORRISON / DRAPER,,,45.3402,-75.795213,,,0,,,,,
2244,5257,MORRISON / BAYLIE,,,45.342853,-75.796723,,,0,,,,,
2245,5255,MORRISON / CONSUL,,,45.344435,-75.79728,,,0,,,,,
2246,5254,MORRISON / SAXTON,,,45.345262,-75.795523,,,0,,,,,
2247,5253,MORRISON / ASHLEY,,,45.345867,-75.793385,,,0,,,,,
2248,4069,DRAPER / MORRISON,,,45.345667,-75.790867,,,0,,,,,
2249,5252,LISA / DRAPER,,,45.343752,-75.789532,,,0,,,,,
225,2052,VALIN / PORTOBELLO,,,45.474569,-75.47035,,,0,,,,,
2250,4062,GREENBANK / LISA,,,45.344078,-75.788338,,,0,,,,,
2251,4086,GREENBANK / IRIS,,,45.346995,-75.788387,,,0,,,,,
2252,4566,IRIS / GREENBANK,,,45.347782,-75.787743,,,0,,,,,
2253,4078,IRIS / SOUTHWOOD,,,45.348623,-75.78481,,,0,,,,,
2254,4565,IRIS / SODERLIND,,,45.350777,-75.780822,,,0,,,,,
2255,2911,IRIS / ELMIRA,,,45.351413,-75.779692,,,0,,,,,
2256,4562,IRIS / COBDEN,,,45.352208,-75.777125,,,0,,,,,
2257,2912,IRIS / HIGHGATE,,,45.352812,-75.775107,,,0,,,,,
2258,4561,IRIS / GATEWAY,,,45.354307,-75.772445,,,0,,,,,
2259,2913,IRIS / PARKWAY,,,45.355203,-75.770823,,,0,,,,,
226,2053,VALIN / JERSEY,,,45.47396,-75.467555,,,0,,,,,
2260,2915,IRIS / PARKWAY,,,45.355004,-75.77128,,,0,,,,,
2261,4559,IRIS / GATEWAY,,,45.354488,-75.772198,,,0,,,,,
2262,4560,IRIS / HIGHGATE,,,45.352797,-75.775273,,,0,,,,,
2263,2916,IRIS / COBDEN,,,45.35224,-75.77742,,,0,,,,,
2264,4563,IRIS / DEMPSEY,,,45.351333,-75.779987,,,0,,,,,
2265,4564,IRIS / BAXTER,,,45.350428,-75.781678,,,0,,,,,
2266,2917,IRIS / SOUTHWOOD,,,45.348623,-75.785033,,,0,,,,,
2267,1642,IRIS / PINECREST MALL,,,45.348147,-75.78675,,,0,,,,,
2268,4080,GREENBANK / IRIS,,,45.346883,-75.788777,,,0,,,,,
2269,4084,GREENBANK / MORRISON,,,45.345388,-75.78853,,,0,,,,,
227,2054,VALIN / LIBERTY,,,45.473118,-75.4656,,,0,,,,,
2270,2426,GREENBANK / LISA,,,45.344038,-75.788657,,,0,,,,,
2271,5268,LISA / DRAPER,,,45.343768,-75.789627,,,0,,,,,
2272,5269,MORRISON / DRAPER,,,45.346002,-75.791183,,,0,,,,,
2273,5270,MORRISON / ASHLEY,,,45.345913,-75.793488,,,0,,,,,
2274,1699,MORRISON / SAXTON,,,45.345293,-75.795722,,,0,,,,,
2275,5256,MORRISON / CONSUL,,,45.34438,-75.797423,,,0,,,,,
2276,5258,MORRISON / BERGEN,,,45.342433,-75.796548,,,0,,,,,
2277,5260,MORRISON / DRAPER,,,45.339733,-75.795117,,,0,,,,,
2279,0951,RICHMOND / BASELINE,,,45.334993,-75.81253,,,0,,,,,
228,2055,VALIN / WINSOME,,,45.472163,-75.463478,,,0,,,,,
2280,1142,RICHMOND / JOHN SUTHERLAND,,,45.336813,-75.811275,,,0,,,,,
